stop_id,stop_name,stop_desc,stop_lat,stop_lon,trip_heads,agency_id,route_long
16436,Calzada Ermita Iztapalapa - La Viga_1,,19.35759115,-99.1220963,Metro Mixcoac -  Metro Santa Martha,RTP,Metro Santa Martha -  Metro Mixcoac
15592,Calzada Ermita Iztapalapa - Metro Cerro De La Estrella,,19.35654855,-99.08636928,Metro Santa Martha -  Metro Mixcoac,RTP,Metro Santa Martha -  Metro Mixcoac
19174,Calzada Guadalupe - Moctezuma,,19.47983292,-99.11879182,Centro Comercial Santa Fe - La Villa/Cantera,RTP,Centro Comercial Santa Fe -  La Villa/Cantera por Palmas (Noche Bus)
18685,Calzada Ignacio Zaragoza - Anillo Periférico Canal de Garay,,19.39847006,-99.05817389,Colonia Miguel de la Madrid-Metro Zaragoza,RTP,Colonia Miguel de la Madrid -  Metro Zaragoza
15402,Calzada Ignacio Zaragoza - Eje 3 Oriente Francisco Del Paso Y Troncoso,Parabus Antes de la Curva,19.4275011,-99.11185026,San Lázaro - Carmen Serdán,RTP,Metro San Lazáro - Carmen Serdàn
18743,Calzada Ignacio Zaragoza - Metro Zaragoza,,19.41174666,-99.08300042,Metro Zaragoza - Colonia Miguel de la Madrid,RTP,Colonia Miguel de la Madrid -  Metro Zaragoza
18772,Calzada Ignacio Zaragoza - Oriente 247,,19.40270007,-99.06738997,Metro Zaragoza - Colonia Miguel de la Madrid,RTP,Colonia Miguel de la Madrid -  Metro Zaragoza
19817,Calzada México - Tacuba - Mariano Escobedo,,19.45630441,-99.18081522,Metro Cuatro Caminos - Colonia Moctezuma 2da. Sección,RTP,Metro Cuatro Caminos -  Colonia Moctezuma 2da. Sección
24440,Calzada México - Xochimilco - Escuela Enfermería UNAM,,19.29208663,-99.15107489,Republica del Salvador - Santiago Tepalcatlalpan,RTP,Santiago Tepalcatlalpan - República del Salvador
19309,Calzada Xochimilco - Tulyehualco - Cocoxochilt,,19.24736245,-99.08684134,Villa Milpa Alta - Metro Tasqueña,RTP,Villa Milpa Alta - Metro Tasqueña
27436,Camino A Desierto De Los Leones - Anillo Periférico,,19.34701299,-99.20310974,Santa Rosa - Metro Mixcoac,RTP,Santa Rosa Xochiac - Metro Mixcoac
27429,Camino A Desierto De Los Leones - Flor De María,,19.34672954,-99.20712233,Santa Rosa - Metro Mixcoac,RTP,Santa Rosa Xochiac - Metro Mixcoac
27238,Camino A Desierto De Los Leones - La Escondida,,19.33072431,-99.2882967,Santa Rosa - Metro Mixcoac,RTP,Santa Rosa Xochiac - Metro Mixcoac
27411,Camino A Desierto De Los Leones - Tizampapano,,19.34272079,-99.22321558,Santa Rosa - Metro Mixcoac,RTP,Santa Rosa Xochiac - Metro Mixcoac
29157,Camino De La Unión  - Camino Parque Central,,19.48577015,-99.07571554,León de los Aldama - Central de Abastos,RTP,San Felipe/León de Los Aldama -  Central de Abastos
23604,Camino Real - Hidalgo,,19.32999538,-99.03286457,Colonia Buenavista - Central de Abastos,RTP,Colonia Buenavista - Central de Abasto
22093,Camino Real - Nuevo León,,19.32821354,-99.03143764,Central de Abasto - Colonia Buenavista,RTP,Colonia Buenavista - Central de Abasto
23606,Camino Real - Pozos,,19.33096729,-99.03428078,Colonia Buenavista - Central de Abastos,RTP,Colonia Buenavista - Central de Abasto
23001,Camino Real a Toluca - Canario,,19.39625381,-99.19265985,Jesús del Monte (Cuajimalpa ) - Metro Tacubaya Nocturno,RTP,Jesús del Monte (Cuajimalpa) - Metro Tacubaya (Noche Bus)
21312,Canal De Desfogue - Flor De Lis,,19.50337825,-99.09062862,León de los Aldama - Metro Chabacano,RTP,León de los Aldama - Metro Chabacano
29611,Canal De Tezontle - Calle 47,,19.38452441,-99.09632564,León de los Aldama - Central de Abastos,RTP,San Felipe/León de Los Aldama -  Central de Abastos
19179,Cantera - Hidalgo_1,,19.48521386,-99.11334157,Centro Comercial Santa Fe -La Villa/Cantera por Reforma,RTP,Centro Comercial Santa Fe - La Villa/Cantera por Reforma
19072,Cantera - Miguel Miramon,,19.48788403,-99.11410332,La Villa/Ferroplaza -  Colonia Forestal,RTP,Colonia Forestal - La Villa Ferroplaza
16995,Carlos A. Vidal - Francisco Villa,,19.29511438,-99.0098083,Santa Catarina -  Metro Universidad,RTP,Santa Catarina - Metro Universidad
30780,Carretera Federal A Cuernavaca - Km. 23 Colegio Peterson,,19.24245987,-99.1679728,Metro Universidad - Topilejo,RTP,Topilejo - Metro Universidad
26221,Carretera San Mateo - Santa Rosa - Valle De Las Monjas_1,,19.34367237,-99.28625822,Metro Zapata - San Mateo Tlaltenango,RTP,Metro Zapata - San Mateo Tlaltenango
24523,Carretera San Pablo - Topilejo - Unidad Habitacional Rinconada San Pablo,,19.25423999,-99.1214633,Republica del Salvador - Santiago Tepalcatlalpan,RTP,Santiago Tepalcatlalpan - República del Salvador
19188,Carretera Xochimilco - San Pablo - Camino Real,,19.20458152,-99.1017437,Xochimilco/Palmas - San Pablo Oztotepec,RTP,San Pablo Oztotepec -  Xochimilco/Palmas
16473,Cecilio Róbelo - M. Rivera Cambas,,19.42230039,-99.108181,Carmen Serdán - San Lázaro,RTP,Metro San Lazáro - Carmen Serdàn
28979,Cedros - Clementino,,19.33806403,-98.97998214,Campestre Potrero - Metro Zaragoza por Metro Tepalcates,RTP,Campestre Potrero - Metro Zaragoza
15589,Central de Abasto - Pescaderías,,19.3722369,-99.0980288,Central de Abastos - León de los Aldama,RTP,San Felipe/León de Los Aldama -  Central de Abastos
18272,Cerro Gordo - India Bonita,,19.5707689,-99.13476706,Lomas de Cuautepec - Metro Indios Verdes,RTP,Lomas de Cuautepec - Metro Indios Verdes
18875,Chalma La Villa - Virginia Fabregas,,19.53088391,-99.1440475,Metro Indios Verdes - El Tepetatal (El Charco),RTP,Colonia El Tepetatal (El Charco)  -  Metro Indios Verdes
26358,Chicago - Las Presas,,19.3837856,-99.21237946,Jalalpa - Metro Tacubaya,RTP,Ampliación Jalalpa - Metro Tacubaya
26504,Chicago - Minas,,19.38094166,-99.20816302,Metro Tacubaya - Piloto,RTP,Piloto - Metro Tacubya
16004,Chiquihuite - Santa Cruz,,19.52100465,-99.12581921,Zacatenco - Metro Potrero,RTP,Zacatenco - Metro Potrero
18592,Cierre de Circuito Ampliación Malacates - Palmas,,19.57624789,-99.13079739,Ampliación Malacates - Metro La Raza (Línea 3),RTP,Ampliación Malacates - Metro la Raza (Linea 3)
15741,Cierre de Circuito Cetram Metro Mixcoac,,19.37576982,-99.18791771,Metro Mixcoac -  Metro Santa Martha,RTP,Metro Santa Martha -  Metro Mixcoac
28287,Cierre de Circuito Santa Rosa Xochiac,,19.33044084,-99.28727746,Santa Rosa - Metro Tacubaya (Cartagena),RTP,Santa Rosa Xochiac - Metro Tacubaya
18495,Circuito Interior - Eje 6 Sur Trabajadores Sociales _1,,19.37181238,-99.10283804,Oceanía Norte Nocturno,RTP,Circuito Bicentenario (Noche Bus)
26384,Conkal y av. 35,,19.27996491,-99.23241019,Metro Chapultepec - Pedregal de San Nicolás,RTP,Metro Chapultepec - Torres de Padierna/Pedregal de San Nicolás
24502,cuauhtemoc y emiliano zapata,,19.35402806,-98.96701097,San Miguel Teotongo/Torres -  Metro Zaragoza/M. Tepalcates,RTP,San Miguel Teotongo/Torres  -  Metro Zaragoza/M. Tepalcates
18540,Cuitláhuac - Ferrocarril Central,,19.4720343,-99.16372418,Panteón San Isidro - Aragón Nocturno,RTP,Aragón - Panteón San Isidro (Noche Bus)
22039,De Las Torres - Pozos,,19.33820576,-99.03204918,Metro Constitución de 1917 - Barranca de Guadalupe,RTP,Barranca de Guadalupe - Metro Constitución de 1917
16628,Eje 1 Oriente Avenida Canal de Miramontes - Cannes,,19.29734213,-99.12537932,Metro Tasqueña - Villa Milpa Alta,RTP,Villa Milpa Alta - Metro Tasqueña
19376,Eje 1 Oriente Avenida Canal de Miramontes - Marcos H. Pulido,,19.33327553,-99.13670897,Villa Milpa Alta - Metro Tasqueña,RTP,Villa Milpa Alta - Metro Tasqueña
21804,Eje 10 Sur - Iglesia,,19.33682896,-99.19903278,Metro Miguel Ángel de Quevedo- Cierre de Circuito Santa Fe,RTP,ECOBÚS Santa Fe - Metro Miguel Ángel de Quevedo
19895,Eje 10 Sur - Narciso Ma. Loreto,,19.30625281,-98.97001505,Metro Universidad - Santa Catarina,RTP,Santa Catarina - Metro Universidad
28569,Eje 2 Poniente Monterrey - Durango,,19.4199934,-99.16473269,Parque México - Metro Rosario por Plan de San Luis,RTP,Metro El Rosario - Parque México por Plan de San Luis
16377,Eje 3 Oriente Francisco Del Paso Y Troncoso - Apatlaco,Parabus en la esquina de la Calle,19.38157927,-99.11073446,San Lázaro - Carmen Serdán,RTP,Metro San Lazáro - Carmen Serdàn
15444,Eje 3 Oriente Francisco Del Paso Y Troncoso - Metro Mixihuca,Saliendo del Metro antes de cruzar la Av. Morelos,19.4088425,-99.11343813,San Lázaro - Carmen Serdan,RTP,Metro San Lázaro - Carmen Serdàn
16373,Eje 3 Oriente Francisco Del Paso Y Troncoso - Santa María Purísima,A 100 metros de las Escalinatas de la Estación del Metro Apatlaco Linea-8,19.37931219,-99.10982251,San Lázaro - Carmen Serdan,RTP,Metro San Lázaro - Carmen Serdàn
15585,Eje 5 Norte Avenida Deportivo Reynosa - Alameda Norte,,19.50145672,-99.17689919,Metro Tacuba -  Metro Martín Carrera  por Ceylán,RTP,Metro Martín Carrera - Metro Tacuba por Ceylán
21892,Eje 5 Norte Avenida San Juan de Aragón - Andador León,,19.473238,-99.08789277,Metro Chapultepec - Aragón,RTP,Aragón - Metro Chapultepec por la Villa
21555,Eje 5 Oriente Avenida Javier Rojo Gómez - Eje 8 Sur Calzada Ermita - Iztapalapa,,19.35689271,-99.08654094,Central de Abasto - Colonia Buenavista,RTP,Colonia Buenavista - Central de Abasto
15370,Eje 5 Sur Avenida De Las Torres - Unión De Colonos / Plaza Civica,,19.34660807,-98.99034619,Metro Zaragoza/M. Tepalcates - San Miguel Teotongo/Torres,RTP,San Miguel Teotongo/Torres  -  Metro Zaragoza/M. Tepalcates
15786,Eje 6 Sur Avenida De Las Torres - Las Américas,,19.34601081,-98.98726702,Metro Zaragoza/M. Tepalcates - San Miguel Teotongo/Torres,RTP,San Miguel Teotongo/Torres  -  Metro Zaragoza/M. Tepalcates
15750,Eje 6 Sur Avenida De Las Torres - Pirules,,19.35047501,-99.01026964,Metro Zaragoza - Colonia Miguel de la Madrid,RTP,Colonia Miguel de la Madrid -  Metro Zaragoza
35081,Eje 6 Sur Avenida De Las Torres - Unión De Colonos /  Plaza Civica,,19.346932,-98.98994923,Santa Catarina / Lienzo Charro - Central de Abastos,RTP,Lienzo Charro / Santa Catarina - Central de Abastos Expreso
15781,Eje 7 Sur Extremadura - Poussin,,19.37546618,-99.18557882,Metro Santa Martha -  Metro Mixcoac,RTP,Metro Santa Martha -  Metro Mixcoac
17635,Eje 8 Popocatépetl - Avenida Universidad,,19.36629611,-99.16735053,Metro Santa Martha - Metro Zapata,RTP,Metro Santa Martha - Metro Zapata
26594,Avenida Ibis - Curucú,,19.3613364,-99.233349,Metro Mixcoac - Tepeaca,RTP,Tepeaca - Metro Mixcoac
18982,Avenida Ingeniero Alfredo Robles Dominguez - Real del Monte,,19.47003148,-99.1318059,Aragón - Panteón San Isidro Nocturno,RTP,Aragón - Panteón San Isidro (Noche Bus)
18595,Avenida Instituto Politécnico Nacional - Frente Escuela ESEM,,19.49869575,-99.13221359,Colonia El Tepetatal (El Charco) -  Metro Potrero,RTP,Colonia El Tepetatal (El Charco) -  Metro Potrero
17195,Avenida Instituto Politécnico Nacional - Paranagua,,19.5096989,-99.12564754,Metro Potrero - Zacatenco,RTP,Zacatenco - Metro Potrero
21818,Avenida Insurgentes - Úrsula Galván,,19.33795267,-99.04662967,Metro Constitución de 1917 - San José Buenavista,RTP,San José Buenavista - Metro Constitución de 1917
23028,Avenida Jalisco - Iturbide,,19.40153632,-99.18778896,Jesús del Monte (Cuajimalpa ) - Metro Tacubaya Nocturno,RTP,Jesús del Monte (Cuajimalpa) - Metro Tacubaya (Noche Bus)
31469,Avenida México - 16 De Septiembre,,19.23508547,-99.16296244,Metro Universidad - Cierre de circuito Santo Tomás Ajusco,RTP,Santo Tomás Ajusco - Metro Universidad
30977,Avenida México - Ajusco - Las Vías,,19.22872377,-99.19759512,Metro Universidad - Cierre de circuito Santo Tomás Ajusco,RTP,Santo Tomás Ajusco - Metro Universidad
25383,Avenida México - Puebla,,19.34659794,-99.00124669,Avisadero/Colonia Ixtlahuacan -  Metro Zaragoza/M. Tepalcates,RTP,Colonia Ixtlahuacan Avisadero -  Metro Zaragoza
20340,Avenida México Poniente - Vicente Guerrero,,19.2533284,-99.05932188,Xochimilco/Palmas - Tulyehualco,RTP,Tulyehualco - Xochimilco/Palmas
18682,Avenida Miguel Bernard - Palmas,,19.50448059,-99.13444519,Metro Potrero -  Colonia El Tepetatal (El Charco),RTP,Colonia El Tepetatal (El Charco) -  Metro Potrero
30988,Avenida Miguel Hidalgo - Mariano Matamoros,,19.22703201,-99.19864655,Metro Universidad - Cierre de circuito Santo Tomás Ajusco,RTP,Santo Tomás Ajusco - Metro Universidad
23098,Avenida Noé - Norte 54 A,,19.46484224,-99.11571264,Panteón San Isidro - Aragón Nocturno,RTP,Aragón - Panteón San Isidro (Noche Bus)
19224,Avenida Nuevo León - Aguascalientes,,19.19673934,-99.0249145,Villa Milpa Alta - San Salvador Cuahutenco,RTP,San Salvador Cuahutenco - Villa Milpa Alta
19227,Avenida Nuevo León - Jalisco,,19.19810719,-99.03437734,Villa Milpa Alta - San Salvador Cuahutenco,RTP,San Salvador Cuahutenco - Villa Milpa Alta
19657,Avenida Observatorio - Sur 128,,19.40150596,-99.2015326,San Lorenzo Acopilco - Metro Tacubaya,RTP,San Lorenzo Acopilco - Metro Tacubaya
19114,Avenida Paseo De La Reforma - Burdeos,,19.42376753,-99.1742599,Centro Comercial Santa Fe - La Villa/Cantera,RTP,Centro Comercial Santa Fe -  La Villa/Cantera por Palmas (Noche Bus)
19154,Avenida Paseo De La Reforma - Constancia,,19.45047739,-99.13263202,Centro Comercial Santa Fe - La Villa/Cantera,RTP,Centro Comercial Santa Fe -  La Villa/Cantera por Palmas (Noche Bus)
23991,Avenida Paseo De La Reforma - Metro Hidalgo_1,,19.43775028,-99.14652586,La Villa/Cantera - Centro Comercial Santa Fe Nocturno,RTP,Centro Comercial Santa Fe -  La Villa/Cantera por Palmas (Noche Bus)
24096,Avenida Paseo De La Reforma - Prado Sur,,19.42063086,-99.21797991,La Villa/Cantera - Centro Comercial Santa Fe por Reforma,RTP,Centro Comercial Santa Fe - La Villa/Cantera por Reforma (Expreso)
24011,Avenida Paseo De La Reforma - Río Nilo,,19.42582151,-99.17047262,La Villa/Cantera - Centro Comercial Santa Fe Nocturno,RTP,Centro Comercial Santa Fe -  La Villa/Cantera por Palmas (Noche Bus)
19058,Avenida Paseo De Las Palmas - Monte Stanovoi,,19.42949433,-99.21380639,Centro Comercial Santa Fe - La Villa/Cantera,RTP,Centro Comercial Santa Fe -  La Villa/Cantera por Palmas (Noche Bus)
17209,Avenida Paseo Del Pedregal - Agua,,19.31304688,-99.20293808,Cierre de Circuito Bosques - Metro Universidad,RTP,Bosques del Pedregal - Metro Universidad por López Portillo
23308,Avenida Revolución - Giotto,,19.37486903,-99.18790698,Metro Chapultepec - Puete Colorado,RTP,Puente Colorado - Metro Chapultepec
17107,Avenida Revolución - Miguel Cabrera,,19.36944395,-99.1885078,Metro Chapultepec - Puete Colorado,RTP,Puente Colorado - Metro Chapultepec
29615,Avenida Río Churubusco - Avenida Canal de Apatlaco,,19.37973727,-99.09587502,León de los Aldama - Central de Abastos,RTP,San Felipe/León de Los Aldama -  Central de Abastos
29705,Avenida Río Churubusco - Azafrán,,19.4006458,-99.09794569,Central de Abastos - León de los Aldama,RTP,San Felipe/León de Los Aldama -  Central de Abastos
17490,Avenida Río Consulado - Misterios_1,,19.46190867,-99.12744999,La Villa/Cantera - Centro Comercial Santa Fe Nocturno,RTP,Centro Comercial Santa Fe -  La Villa/Cantera por Palmas (Noche Bus)
30683,Avenida San Francisco - Callejón Del Prado,,19.31324938,-99.23497438,San Bernabel/Oyamel - Metro Universidad,RTP,Metro Universidad - San Bernabé/Oyamel
30625,Avenida San Francisco - Privada De San Francisco,,19.30621231,-99.2432034,San Bernabel/Oyamel - Metro Universidad,RTP,Metro Universidad - San Bernabé/Oyamel
29803,Avenida San Jerónimo - Guadalupe,,19.30608068,-99.24864292,Metro Universidad - San Bernabel/Oyamel,RTP,Metro Universidad - San Bernabé/Oyamel
30605,Avenida San Jerónimo - Guadalupe_1,,19.30574654,-99.24899697,San Bernabel/Oyamel - Metro Universidad,RTP,Metro Universidad - San Bernabé/Oyamel
23140,Avenida Santa Lucia - José Jaramillo,,19.37143789,-99.21271205,San Mateo Tlaltenango - Metro Zapata,RTP,Metro Zapata - San Mateo Tlaltenango
17279,Avenida Santa Úrsula - San Pascacio,,19.31072822,-99.15882111,Metro Universidad - Santa Catarina,RTP,Santa Catarina - Metro Universidad
18502,Avenida Santiago   - Eje 8 Sur Calzada Ermita - Iztapalapa,,19.3572065,-99.00260925,Avisadero/Colonia Miravalle - Metro Zaragoza/M. Tepalcates,RTP,Avisadero/Colonia Miravalle -  Metro Zaragoza
23102,Avenida Tamaulipas - Frente Al No. 112,,19.35691295,-99.25819159,San Mateo Tlaltenango - Metro Zapata,RTP,Metro Zapata - San Mateo Tlaltenango
23119,Avenida Tamaulipas - San Miguel,,19.36451467,-99.24538136,Metro Zapata - San Mateo Tlaltenango,RTP,Metro Zapata - San Mateo Tlaltenango
18342,Avenida Tecnológico - Maestro Antonio Caso,,19.53977168,-99.14892912,Colonia El Tepetatal (El Charco) -  Metro Potrero,RTP,Colonia El Tepetatal (El Charco) -  Metro Potrero
15579,Avenida Tepantongo - Real de San Martín,,19.49665281,-99.18480635,Metro Tacuba -  Metro Martín Carrera  por Ceylán,RTP,Metro Martín Carrera - Metro Tacuba por Ceylán
16974,Avenida Tláhuac - Flores Magón,,19.29644091,-99.03607249,Santa Catarina -  Metro Universidad,RTP,Santa Catarina - Metro Universidad
16970,Avenida Tláhuac - Frente No. 6828/Aurex,,19.2983041,-99.0240562,Santa Catarina -  Metro Universidad,RTP,Santa Catarina - Metro Universidad
18366,Avenida Tláhuac - Guillermo Prieto,,19.29914456,-99.04185534,Metro Constitución de 1917 - Santa Catarina,RTP,Santa Catarina - Metro Constitución de 1917
39908,Avenida Tláhuac - Hernan Cortes,,19.29652192,-99.04011726,Santa Catarina - Metro Constitución de 1917,RTP,Santa Catarina - Metro Constitución de 1917
16990,Avenida Tláhuac - Zacatlán,,19.3065262,-99.06600595,Santa Catarina - Metro Constitución de 1917,RTP,Santa Catarina - Metro Constitución de 1917
26460,Barranca Del Muerto - Avenida Lomas De Plateros,,19.36428186,-99.19547081,Metro Mixcoac - Tepeaca,RTP,Tepeaca - Metro Mixcoac
19862,Belisario Domínguez - Cuahtemoc,,19.25515157,-99.05572772,Tulyehualco - Xochimilco/Palmas,RTP,Tulyehualco - Xochimilco/Palmas
15695,Cafetales - Alfalfares,Frente a la Acuática Nelson Vargas,19.29241067,-99.11515474,Metro San Lázaro - Bosque de Nativitas por Cafetales,RTP,Bosque de Nativitas - Metro San Lázaro por Cafetales
30238,Cafetales - Cañaverales_1,,19.29479035,-99.11440372,Bosque de Nativitas - Metro San Lázaro por Cafetales,RTP,Bosque de Nativitas - Metro San Lázaro por Cafetales
20025,Calzada De La Viga - Emiliano Zapata,,19.36192344,-99.12246108,U.C.T.M. Atzacoalco - Carmen Serdán,RTP,U.C.T.M. Atzacoalco - Carmen Serdán
19777,Calzada De La Viga - San Francisco,,19.39635501,-99.12365198,U.C.T.M. Atzacoalco - Carmen Serdán,RTP,U.C.T.M. Atzacoalco - Carmen Serdán
25123,Calzada De Tlalpan - Ciudad Jardín,,19.33538128,-99.1419661,Metro Taxqueña - San Pedro Mártir,RTP,Metro Tasqueña - San Pedro Martir por FOVISSSTE
24139,Calzada De Tlalpan - Cumbres De Maltrata,,19.37754101,-99.1407001,Republica del Salvador - Santiago Tepalcatlalpan,RTP,Santiago Tepalcatlalpan - República del Salvador
23970,Calzada De Tlalpan - Eje 4 Oriente Avenida Río Churubusco,,19.3559412,-99.14401531,Santiago Tepalcatlalpan - Republica del Salvador,RTP,Santiago Tepalcatlalpan - República del Salvador
23971,Calzada De Tlalpan - Eje 8 Sur Calzada Ermita - Iztapalapa,,19.3597978,-99.14310336,Santiago Tepalcatlalpan - Republica del Salvador,RTP,Santiago Tepalcatlalpan - República del Salvador
19529,Calzada De Tlalpan - Estadio Azteca,,19.30156464,-99.14758801,Metro Universidad - Topilejo,RTP,Topilejo - Metro Universidad
19598,Calzada De Tlalpan - Luis Murillo,,19.29907368,-99.1505599,Metro Universidad - Topilejo,RTP,Topilejo - Metro Universidad
24981,Calzada de Tlalpan - Metro Chabacano,,19.40897405,-99.13542151,León de los Aldama - Metro Chabacano,RTP,León de los Aldama - Metro Chabacano
23977,Calzada De Tlalpan - Metro Portales,,19.36978808,-99.14141893,Santiago Tepalcatlalpan - Republica del Salvador,RTP,Santiago Tepalcatlalpan - República del Salvador
31888,Calzada De Tlalpan - Textitlán_1,,19.31332026,-99.13993835,San Pedro Mártir - Metro Taxqueña,RTP,Metro Tasqueña - San Pedro Martir por FOVISSSTE
31887,Calzada De Tlalpan -Tlalmanalco_1,,19.305058,-99.14421916,San Pedro Mártir - Metro Taxqueña,RTP,Metro Tasqueña - San Pedro Martir por FOVISSSTE
15233,Calzada Ermita Iztapalapa - 2 De Abril,,19.34223487,-99.05228376,Metro Santa Martha -  Metro Mixcoac,RTP,Metro Santa Martha -  Metro Mixcoac
15640,Calzada Ermita Iztapalapa - Artesanos,,19.35761139,-99.11889911,Metro Santa Martha -  Metro Mixcoac,RTP,Metro Santa Martha -  Metro Mixcoac
15228,Calzada Ermita Iztapalapa - Calle 17,,19.34374323,-99.03580427,Metro Santa Martha -  Metro Mixcoac,RTP,Metro Santa Martha -  Metro Mixcoac
15501,Avenida 5 - Escuadrón 201,A 200 metros antes de las Escalinatas de la Estación del Metro 201,19.36433247,-99.10940409,Carmen Serdan - San Lázaro,RTP,Metro San Lázaro - Carmen Serdàn
18752,Avenida 5 de Febrero - Cantera,,19.48738843,-99.11270857,La Villa/Ferroplaza -  Colonia Forestal,RTP,Colonia Forestal - La Villa Ferroplaza
20366,Avenida 5 De Mayo - General Angel P. Rosa,,19.25761282,-99.02628779,Xochimilco/Palmas - Tulyehualco,RTP,Tulyehualco - Xochimilco/Palmas
23120,Avenida 506 - Avenida 553,,19.45422046,-99.08500671,Panteón San Isidro - Aragón Nocturno,RTP,Aragón - Panteón San Isidro (Noche Bus)
23128,Avenida 608 - Avenida 597,,19.45556593,-99.07226086,Panteón San Isidro - Aragón Nocturno,RTP,Aragón - Panteón San Isidro (Noche Bus)
19764,Avenida Año Juárez - Canal Amecameca,,19.25959799,-99.0312767,Tulyehualco - Xochimilco/Palmas,RTP,Tulyehualco - Xochimilco/Palmas
22240,Avenida Arteaga y Salazar - Cuartel,,19.34871364,-99.28830743,Jesús del Monte (Cuajimalpa ) - Metro Tacubaya Nocturno,RTP,Jesús del Monte (Cuajimalpa) - Metro Tacubaya (Noche Bus)
15566,Avenida Azcapotzalco - Invierno,,19.46970779,-99.18748856,Metro Tacuba -  Metro Martín Carrera  por Ceylán,RTP,Metro Martín Carrera - Metro Tacuba por Ceylán
18948,Avenida Benito Juárez - Chalma La Villa,,19.53993346,-99.15392876,Metro Potrero -  Colonia El Tepetatal (El Charco),RTP,Colonia El Tepetatal (El Charco) -  Metro Potrero
24260,Avenida Camino Real a Toluca - Bodega Aurrera,,19.3867813,-99.22267914,Metro Tacubaya - Jesús del Monte (Cuajimalpa) Nocturno,RTP,Jesús del Monte (Cuajimalpa) - Metro Tacubaya (Noche Bus)
26546,Avenida Centenario - Frente A Telmex,,19.36384662,-99.22307611,Metro Mixcoac - Tepeaca,RTP,Tepeaca - Metro Mixcoac
35995,Avenida Constituyentes - Avenida Observatorio,,19.40057496,-99.21119928,Cierre de circuito Santa Fe - Metro Balderas,RTP,ECOBÚS Santa Fe - Metro Balderas
19559,Avenida Constituyentes - Estado Mayor Presidencial,,19.39578829,-99.22319412,San Lorenzo Acopilco - Metro Tacubaya,RTP,San Lorenzo Acopilco - Metro Tacubaya
19607,Avenida Constituyentes - Vocacional 4,,19.39860161,-99.2147398,San Lorenzo Acopilco - Metro Tacubaya,RTP,San Lorenzo Acopilco - Metro Tacubaya
19365,Avenida Cuitláhuac - Calzada México - Tacuba,,19.45662813,-99.18043971,Metro El Rosario - Parque México por Cuitláhuac,RTP,Metro El Rosario - Parque México por Cuitláhuac
21397,Avenida Cuitláhuac - Camarones,,19.4682714,-99.1759336,Metro Chapultepec - Aragón por Avenida 604,RTP,Aragón - Metro Chapultepec por Avenida 604
19292,Avenida Cuitláhuac - Claveria,,19.46486247,-99.17757511,Metro El Rosario - Parque México por Cuitláhuac,RTP,Metro El Rosario - Parque México por Cuitláhuac
19377,Avenida De Las Culturas - Cultura Griega,,19.50999217,-99.19741273,Metro Tacuba - Metro Rosario,RTP,Metro Rosario - Metro Tacuba
19385,Avenida De Las Culturas - Unidad Habitacional Xochinahuac,,19.50864716,-99.19779897,Metro Tacuba - Metro Rosario,RTP,Metro Rosario - Metro Tacuba
18638,Avenida Del Imán - Circuito Azteca,,19.30346828,-99.15942192,Metro Universidad - Topilejo,RTP,Topilejo - Metro Universidad
21159,Avenida Del Peñón - Cairo,,19.4402796,-99.10343885,Colonia Moctezuma 2da. Sección - Metro Cuatro Caminos,RTP,Metro Cuatro Caminos -  Colonia Moctezuma 2da. Sección
23136,Avenida del trabajo - Rivero,,19.44712878,-99.12571192,León de los Aldama - Metro Chabacano,RTP,León de los Aldama - Metro Chabacano
15587,Avenida Granjas - Matlacoatl_1,,19.50079935,-99.17547226,Metro Tacuba -  Metro Martín Carrera  por Ceylán,RTP,Metro Martín Carrera - Metro Tacuba por Ceylán
29074,Avenida Granjas - Rastro_1,,19.49678428,-99.17387366,Metro El Rosario - Parque México por Plan de San Luis,RTP,Metro El Rosario - Parque México por Plan de San Luis
19772,Avenida H. Congreso De La Unión - Del Recreo,,19.39867245,-99.12267566,U.C.T.M. Atzacoalco - Carmen Serdán,RTP,U.C.T.M. Atzacoalco - Carmen Serdán
21063,Avenida H. Congreso De La Unión - Eje 3 Sur Avenida Morelos_1,,19.40892345,-99.12147403,Carmen Serdán - U.C.T.M. Atzacoalco,RTP,U.C.T.M. Atzacoalco - Carmen Serdán
21115,Avenida H. Congreso De La Unión - Héroes De Nacozari_1,,19.43563575,-99.11853433,Carmen Serdán - U.C.T.M. Atzacoalco,RTP,U.C.T.M. Atzacoalco - Carmen Serdán
21122,Avenida H. Congreso De La Unión - Herreros,,19.43944999,-99.11799788,Carmen Serdán - U.C.T.M. Atzacoalco,RTP,U.C.T.M. Atzacoalco - Carmen Serdán
15737,18 de Marzo - Guadalupe Victoria,,19.5532506,-99.1442258,Metro Indios Verdes - El Tepetatal (El Charco),RTP,Colonia El Tepetatal (El Charco)  -  Metro Indios Verdes
21317,5 De Mayo - Hidalgo,,19.20567575,-99.06876326,Xochimilco/Palmas - San Bartolomé Xicomulco,RTP,San Bartolomé Xicomulco - Xochimilco/Palmas
24446,Anillo de Circunvalación - República de Guatemala/Miguel Negrete,,19.43389554,-99.12436008,Metro Chabacano - León de los Aldama,RTP,León de los Aldama - Metro Chabacano
24620,Anillo circunvalación - Fray Servando Teresa de Mier,,19.42276583,-99.12608743,Metro Chabacano - León de los Aldama,RTP,León de los Aldama - Metro Chabacano
18429,Acueducto - Insurgentes,,19.50162865,-99.1179657,Colonia El Tepetatal (El Charco)  -  Metro Indios Verdes,RTP,Colonia El Tepetatal (El Charco)  -  Metro Indios Verdes
15329,"Agustín Olachea Avilés -	Ernesto P. Uruchurtú",,19.42212837,-99.0727973,Metro Pantitlán - Arenal 4ta. Sección,RTP,Arenal 4ta. Sección - Metro Pantitlán
42613,Av.Universidad - Cerro Tuera,,19.34202228,-99.18183446,Metro Miguel Ángel de Quevedo- Cierre de Circuito Santa Fe,RTP,ECOBÚS Santa Fe - Metro Miguel Ángel de Quevedo
23404,Av. Morelos - Prolongación Morelos,,19.20332518,-99.13905859,Xochimilco/Palmas - San Miguel Tehuizco,RTP,San Miguel Tehuizco - Xochimilco/Palmas
18407,Avenida 412 - Avenida 1549,,19.46408356,-99.06249762,Aragón - Metro Chapultepec,RTP,Aragón - Metro Chapultepec por la Villa
19479,Anillo Periférico Sur - Las Flores,,19.35667002,-99.1985929,Cetram Metro Cuatro Caminos - Cetram Metro Constitución de 1917 Nocturno,RTP,Metro Constitución de 1917 - Metro Cuatro Caminos (Noche Bus)
19796,Autopista México - Cuernavaca - Túnel De San Pedro Puente Verde,,19.26470262,-99.16563392,Estadio Azteca - Caseta,RTP,Estadio Azteca - Caseta Cuernavaca
34634,Anillo Periférico Boulevard Adolfo Ruiz Cortinez - Prolongación División Del Norte_1_2,,19.28458281,-99.12505746,Xochimilco / Bosque de Nativitas - Alameda Oriente,RTP,Alameda Oriente - Xochimilco / Bosque de Nativitas Expreso
19714,Anillo Periférico Boulevard Adolfo Ruiz Cortinez - Puente 2,,19.28766134,-99.11827683,Cetram Metro Cuatro Caminos - Cetram Metro Constitución de 1917 Nocturno,RTP,Metro Constitución de 1917 - Metro Cuatro Caminos (Noche Bus)
17155,Anillo Periférico Canal de Garay - Cuarta Avenida,,19.42608458,-99.05381799,Xochimilco/Bosque de Nativitas - Alameda Oriente Nocturno,RTP,Alameda Oriente - Xochimilco / Bosque de Nativitas (Noche Bus)
15843,Anillo Periférico Canal de Garay - Chimalhuacan,,19.42235098,-99.05573845,Alameda Oriente - Xochimilco/Bosque de Nativitas Nocturno,RTP,Alameda Oriente - Xochimilco / Bosque de Nativitas (Noche Bus)
18703,Av. José María Morelos - Fernando Montes De Oca,,19.19171366,-99.08683062,Villa Milpa Alta - San Salvador Cuahutenco,RTP,San Salvador Cuahutenco - Villa Milpa Alta
24471,16 De Septiembre - Niños Héroes,,19.27927626,-99.13534641,Republica del Salvador - Santiago Tepalcatlalpan,RTP,Santiago Tepalcatlalpan - República del Salvador
15927,18 de Marzo - 18 de Marzo,,19.54940714,-99.14515257,Metro Indios Verdes - El Tepetatal (El Charco),RTP,Colonia El Tepetatal (El Charco)  -  Metro Indios Verdes
35226,Estación 41435226,,19.37140753,-99.19138312,Metro Constitución - Metro Cuatro Caminos,RTP,Metro Cuatro Caminos - Metro Constitución de 1917 Expreso
17108,Anillo Periférico Canal de Garay - San Nicolas,,19.33374123,-99.06418204,Cetram Metro Cuatro Caminos - Cetram Metro Constitución de 1917 Nocturno,RTP,Metro Constitución de 1917 - Metro Cuatro Caminos (Noche Bus)
17091,Anillo Periférico Canal de Garay - Reforma_1,,19.32523702,-99.07002926,Cetram Metro Cuatro Caminos - Cetram Metro Constitución de 1917 Nocturno,RTP,Metro Constitución de 1917 - Metro Cuatro Caminos (Noche Bus)
15867,Anillo Periférico Canal de Garay - Mercado De San Juan,,19.40173871,-99.05813098,Alameda Oriente - Xochimilco/Bosque de Nativitas Nocturno,RTP,Alameda Oriente - Xochimilco / Bosque de Nativitas (Noche Bus)
17121,Anillo Periférico Canal de Garay - Leyes De Reforma,,19.37599248,-99.05909657,Xochimilco/Bosque de Nativitas - Alameda Oriente Nocturno,RTP,Alameda Oriente - Xochimilco / Bosque de Nativitas (Noche Bus)
17150,Anillo Periférico Canal de Garay - Valle De Bravo,,19.41915357,-99.05600667,Xochimilco/Bosque de Nativitas - Alameda Oriente Nocturno,RTP,Alameda Oriente - Xochimilco / Bosque de Nativitas (Noche Bus)
34532,Estación 41434532,,19.34592982,-99.21134949,Río Guadalupe - General Anaya,RTP,Metro General Anaya - Río De Guadalupe
15809,Eje Central Lázaro Cárdenas - Frente Metro Politécnico_1,,19.50078924,-99.14880037,Metro La Raza (Línea 5) - El Tepetatal (El Charco) Expresso,RTP,El Tepetatal (El Charco) - Metro La Raza (Linea 5) Expreso
20375,Ejército de Oriente,,19.36430211,-99.02531147,Metro Constitución de1917 - Ejécito de Oriente,RTP,Ejército de Oriente - Metro Constitución de 1917
20828,Emiliano Zapata - Canal Del Norte,,19.21884645,-98.97090554,Mixquic - Metro Tasqueña,RTP,Mixquic - Metro Tasqueña
18347,Emiliano Zapata - Lázaro Cárdenas,,19.54130854,-99.14004564,Ampliación Malacates - Metro La Raza (Línea 3),RTP,Ampliación Malacates - Metro la Raza (Linea 3)
18349,Emiliano Zapata - Palma,,19.53910436,-99.14088249,Ampliación Malacates - Metro La Raza (Línea 3),RTP,Ampliación Malacates - Metro la Raza (Linea 3)
16369,Emiliano Zapata - Tokio,,19.36582039,-99.15336013,Metro Mixcoac -  Metro Santa Martha,RTP,Metro Santa Martha -  Metro Mixcoac
16611,Escuela Naval Militar - Tepetlapa,,19.31671212,-99.12409186,Bosque de Nativitas - Metro San Lázaro por Miramontes,RTP,Bosque de Nativitas - Metro San Lázaro por Miramontes
16417,Estado de México - 18 de Marzo,,19.5490735,-99.14543152,El Tepetatal (El Charco) - Metro La Raza (Línea 5) Expresso,RTP,El Tepetatal (El Charco) - Metro La Raza (Linea 5) Expreso
21379,Fernando Amilpa - Luis Yuren,,19.50976968,-99.09989834,Carmen Serdán - U.C.T.M. Atzacoalco,RTP,U.C.T.M. Atzacoalco - Carmen Serdán
18436,Ferrocarril San Rafael Atlixco -  Miguel Hidalgo,,19.2692298,-99.00539875,Metro Tasqueña - Mixquic,RTP,Mixquic - Metro Tasqueña
18406,Ferrocarril San Rafael Atlixco - Independencia,,19.29140816,-99.01785493,Metro Universidad - Santa Catarina,RTP,Santa Catarina - Metro Universidad
22862,Francisco I. Madero - Emiliano Zapata,,19.34576786,-99.00537729,Metro Zaragoza - Colonia Miguel de la Madrid,RTP,Colonia Miguel de la Madrid -  Metro Zaragoza
20426,Francisco I. Madero - Miguel Hidalgo,,19.25463501,-99.01502252,Xochimilco/Palmas - Tulyehualco,RTP,Tulyehualco - Xochimilco/Palmas
20657,Fuerte De Loreto - Batalla 5 De Mayo,,19.36921115,-99.03410912,Ejército de Oriente -  Metro Constitución de 1917,RTP,Ejército de Oriente - Metro Constitución de 1917
15287,Gasoducto - Pozo Pedregal,,19.49560098,-99.18654442,Metro Martín Carrera - Metro Tacuba por Ceylán,RTP,Metro Martín Carrera - Metro Tacuba por Ceylán
22123,Gaspar - 25 De Diciembre,,19.37373545,-99.28399444,Col. Navidad ( las piedras) - Metro Tacubaya,RTP,Col. Navidad (Las Piedras) - Metro Tacubaya
17034,General Pedro Antonio De Los Santos - Gobernador  Ignacio Escutia,,19.40966215,-99.18354034,Metro Chapultepec - Puete Colorado,RTP,Puente Colorado - Metro Chapultepec
26998,Granjas - Santo Tómas_1,,19.48449574,-99.17413116,Parque México - Metro Rosario por Plan de San Luis,RTP,Metro El Rosario - Parque México por Plan de San Luis
18625,Guadalupe Victoria - Del Cerrito,,19.54893195,-99.13506746,Metro La Raza (Línea 3) - Ampliación Malacates,RTP,Ampliación Malacates - Metro la Raza (Linea 3)
18610,Guadalupe Victoria - Palma,,19.54004468,-99.13989544,Metro La Raza (Línea 3) - Ampliación Malacates,RTP,Ampliación Malacates - Metro la Raza (Linea 3)
27775,Gutiérrez Zamora - Rivera,,19.3585224,-99.20984745,Puente Colorado - Metro Chapultepec,RTP,Puente Colorado - Metro Chapultepec
16029,Hacienda Mazatepec - Cafetales,Bajo Puente Vehicular  en el semáforo,19.28969678,-99.11541224,Metro Constitución - Metro Cuatro Caminos,RTP,Metro Cuatro Caminos - Metro Constitución de 1917 Expreso
22322,Hampolol - Opichen,,19.29538779,-99.23239946,Pedregal de San Nicolás - Metro Universidad,RTP,Pedregal de San Nicolás - Metro Universidad
29696,Hermanos Vivaldi - Américo Vespucio,,19.3782548,-99.2183909,Piloto - Metro Tacubaya,RTP,Piloto - Metro Tacubya
18759,Hombres Ilustres - Francisco Sarabia,,19.2210651,-99.10019875,San Bartolomé Xicomulco - Xochimilco/Palmas,RTP,San Bartolomé Xicomulco - Xochimilco/Palmas
29314,Hopelchén - Tenozique_1,,19.28204095,-99.22353745,Cierre de Circuito Bosques - Metro Universidad,RTP,Bosques del Pedregal - Metro Universidad por López Portillo
15327,Jaiba - Camarón,,19.42501207,-99.07241106,Metro Pantitlán - Arenal 4ta. Sección,RTP,Arenal 4ta. Sección - Metro Pantitlán
16386,Jaime Nunó - Cuatepec,,19.54488775,-99.15107489,Metro Indios Verdes - El Tepetatal (El Charco),RTP,Colonia El Tepetatal (El Charco)  -  Metro Indios Verdes
18858,José María Morelos - Niños Héroes,,19.23214778,-99.11838412,San Bartolomé Xicomulco - Xochimilco/Palmas,RTP,San Bartolomé Xicomulco - Xochimilco/Palmas
18297,Juventino Rosas - Apango,,19.55753566,-99.1349709,Ampliación Malacates - Metro La Raza (Línea 3),RTP,Ampliación Malacates - Metro la Raza (Linea 3)
18861,Juventino Rosas - Fanny Schiller,,19.56161998,-99.13297534,Ampliación Malacates - Metro La Raza (Línea 3),RTP,Ampliación Malacates - Metro la Raza (Linea 3)
19004,La Turba - Teposan / Lombardos,,19.2853727,-99.04117942,Metro Universidad - Santa Catarina,RTP,Santa Catarina - Metro Universidad
18958,La Turba - Unidad Habitacional  Villa Centro Americana,,19.2875702,-99.05144691,Metro Universidad - Santa Catarina,RTP,Santa Catarina - Metro Universidad
28639,Lauro Aguirre - Antonio Álzate,,19.4481101,-99.16552663,Parque México - Metro Rosario por Plan de San Luis,RTP,Metro El Rosario - Parque México por Plan de San Luis
25310,lazaro cardenas - avenida México,,19.3451706,-98.99617195,Avisadero/Colonia Miravalle - Metro Zaragoza/M. Tepalcates,RTP,Avisadero/Colonia Miravalle -  Metro Zaragoza
31350,Leona Vicario - José María Morelos,,19.21770165,-99.20433283,Metro Universidad - Cierre de circuito Santo Tomás Ajusco,RTP,Santo Tomás Ajusco - Metro Universidad
18282,Lerdo - Luis Alcaraz,,19.56232765,-99.13758874,Metro Potrero -  Colonia El Tepetatal (El Charco),RTP,Colonia El Tepetatal (El Charco) -  Metro Potrero
22226,Loma Del Parque - Loma Del Rey,,19.3765289,-99.27471399,Col. Navidad ( las piedras) - Metro Tacubaya,RTP,Col. Navidad (Las Piedras) - Metro Tacubaya
22255,Loma Del Recuerdo - Entrada Torre Altus,,19.38127565,-99.26766515,Col. Navidad ( las piedras) - Metro Tacubaya,RTP,Col. Navidad (Las Piedras) - Metro Tacubaya
22385,Maní - Tenozique,,19.28532207,-99.23742056,Pedregal de San Nicolás - Metro Universidad,RTP,Pedregal de San Nicolás - Metro Universidad
18894,Mariano Escobedo - Lago Bolsena,,19.44548986,-99.18266058,Metro Chapultepec - Metro Rosario,RTP,Metro El Rosario - Metro Chapultepec
28996,Mayahuel - Bolonchen,,19.27293653,-99.22424555,Cierre de Circuito Bosques - Metro Universidad,RTP,Bosques del Pedregal - Metro Universidad por López Portillo
25344,México - Bellota,,19.34551478,-98.99798512,Avisadero/Colonia Ixtlahuacan -  Metro Zaragoza/M. Tepalcates,RTP,Colonia Ixtlahuacan Avisadero -  Metro Zaragoza
15635,Miguel Othón de Mendizábal - Sanborns,,19.50828309,-99.1422987,Metro Tacuba -  Metro Martín Carrera  por Ceylán,RTP,Metro Martín Carrera - Metro Tacuba por Ceylán
15717,Municipio Libre - Cuauhtémoc,,19.37102291,-99.1610527,Metro Santa Martha -  Metro Mixcoac,RTP,Metro Santa Martha -  Metro Mixcoac
15701,Municipio Libre - Eje Central Lázaro Cárdenas,,19.36931237,-99.1499269,Metro Santa Martha -  Metro Mixcoac,RTP,Metro Santa Martha -  Metro Mixcoac
29488,Norte 172 - Norte 33,,19.43504893,-99.09249544,León de los Aldama - Central de Abastos,RTP,San Felipe/León de Los Aldama -  Central de Abastos
28373,Nueces - Cuitláhuac,,19.47073955,-99.16998982,Metro El Rosario - Parque México por Plan de San Luis,RTP,Metro El Rosario - Parque México por Plan de San Luis
24747,Oaxaca - San Lorenzo_1,,19.33963317,-99.00137544,Colonia Miguel de la Madrid-Metro Zaragoza,RTP,Colonia Miguel de la Madrid -  Metro Zaragoza
23628,obrero revolucionario y pipila,,19.34520096,-98.99587154,Metro Zaragoza/M. Tepalcates - Avisadero/Colonia Miravalle,RTP,Avisadero/Colonia Miravalle -  Metro Zaragoza
20698,Palmitas - Manuel Acuña_1,Palmitas - Frente A La Herrería Decha Manuel Acuña,19.3375781,-99.02620196,Palmitas - Cetram Metro Constitución de 1917,RTP,Metro Constitución de 1917 - Palmitas
18713,Parque Vía - Metro Camarones/Manuel Acuña,,19.47877088,-99.18881893,Aragón - Panteón San Isidro,RTP,Panteón San Isidro - Aragón Expreso
26551,Periferico Norte - Calle 4,,19.39099137,-99.18889403,Metro Constitución - Metro Cuatro Caminos,RTP,Metro Cuatro Caminos - Metro Constitución de 1917 Expreso
28792,Plan De San Luis - Boldo,,19.46917167,-99.166224,Parque México - Metro Rosario por Plan de San Luis,RTP,Metro El Rosario - Parque México por Plan de San Luis
22327,Popolna - Tetiz,,19.29416252,-99.23276424,Pedregal de San Nicolás - Metro Universidad,RTP,Pedregal de San Nicolás - Metro Universidad
15840,Prolongación 16 De Septiembre - Madre Selva,Frente a Conjunto Habitacion,19.24729154,-99.10384655,Alameda Oriente - Xochimilco/Bosque de Nativitas Nocturno,RTP,Alameda Oriente - Xochimilco / Bosque de Nativitas (Noche Bus)
27075,Prolongación Consejo Urbano - Camino A Minas,,19.32987389,-99.02489305,Barranca de Guadalupe - Metro Constitución de 1917,RTP,Barranca de Guadalupe - Metro Constitución de 1917
16068,Prolongación División Del Norte - 20 De Noviembre_1,,19.26095519,-99.11236525,Xochimilco/Bosque de Nativitas - Alameda Oriente Nocturno,RTP,Alameda Oriente - Xochimilco / Bosque de Nativitas (Noche Bus)
15975,Prolongación División Del Norte - Guadalupe I. Ramírez_1,Bajo Puente a 200 metros del Sanbors,19.26565465,-99.11507964,Xochimilco/Bosque de Nativitas - Alameda Oriente Nocturno,RTP,Alameda Oriente - Xochimilco / Bosque de Nativitas (Noche Bus)
21400,Prolongacion Francisco I. Madero - Prolongacion 16 de Septiembre,,19.20298069,-99.12930608,Pedregal de San Francisco Tlanepantla - Xochimilco/Palmas,RTP,Pedregal de San Francisco - Xochimilco/Palmas
29138,Prolongación Hopelchén - Cuervo,,19.26914878,-99.22511458,Cierre de Circuito Bosques - Metro Universidad,RTP,Bosques del Pedregal - Metro Universidad por López Portillo
29141,Prolongación Hopelchén - Troya,,19.27039449,-99.22446012,Cierre de Circuito Bosques - Metro Universidad,RTP,Bosques del Pedregal - Metro Universidad por López Portillo
19495,Prolongación Plutarco Elías Calles - Huberto G. Tamayo,,19.37945389,-99.05018091,Metro Constitución de1917 - Ejécito de Oriente,RTP,Ejército de Oriente - Metro Constitución de 1917
18594,San Miguel - Brisas,,19.57557061,-99.13111925,Ampliación Malacates - Metro La Raza (Línea 3),RTP,Ampliación Malacates - Metro la Raza (Linea 3)
21234,Santa Teresa - Frente Panadería Lecaroz,,19.52923572,-99.14203048,La Villa/Ferroplaza -  Colonia Forestal,RTP,Colonia Forestal - La Villa Ferroplaza
22299,Sindicato De Trabajadores De La Industria Militar - Fabrica De _1,,19.39063716,-99.25944686,Col. Navidad ( las piedras) - Metro Tacubaya,RTP,Col. Navidad (Las Piedras) - Metro Tacubaya
42589,Supervía Poniente - Tuxpan,,19.32212882,-99.22572613,Cierre de Circuito Santa Fe - Metro Miguel Ángel de Quevedo,RTP,ECOBÚS Santa Fe - Metro Miguel Ángel de Quevedo
23431,Ticoman - Clemente Orozco,,19.51663615,-99.1348207,Metro Indios Verdes -  Colonia Cocoyotes (La Brecha),RTP,La Brecha Cocoyotes - Metro Indios Verdes
29839,Villa De Ayala - Atotonilco,,19.4903721,-99.07483578,Central de Abastos - León de los Aldama,RTP,San Felipe/León de Los Aldama -  Central de Abastos
26574,Villa Franqueza - Callejón Villa Gallegos,,19.32563187,-99.03929114,San Jose Buenavista - Metro Constitución de 1917,RTP,San José Buenavista - Metro Constitución de 1917
19133,Viveros De La Paz - Minerva,,19.56298477,-99.12831903,Colonia Forestal - La Villa/Ferroplaza,RTP,Colonia Forestal - La Villa Ferroplaza
28812,Estación 41428812,,19.33906626,-98.97891998,Metro Zaragoza - Campestre Potrero por Metro Tepalcates,RTP,Campestre Potrero - Metro Zaragoza
34390,Estación 41434390,,19.35064709,-99.15594578,Metro General Anaya - Rio de Guadalupe,RTP,Metro General Anaya - Río De Guadalupe
15245,Calzada Ermita Iztapalapa - San Felipe De Jesús,,19.35049525,-99.07356977,Metro Santa Martha -  Metro Mixcoac,RTP,Metro Santa Martha -  Metro Mixcoac
15663,Calzada Ermita Iztapalapa - Sur 75,,19.35887668,-99.13269639,Metro Santa Martha -  Metro Mixcoac,RTP,Metro Santa Martha -  Metro Mixcoac
18702,Calzada Ignacio Zaragoza - Agua Caliente,,19.40788118,-99.07457829,Colonia Miguel de la Madrid-Metro Zaragoza,RTP,Colonia Miguel de la Madrid -  Metro Zaragoza
18762,Calzada Ignacio Zaragoza - Oriente 245,,19.40342867,-99.06860232,Metro Zaragoza - Colonia Miguel de la Madrid,RTP,Colonia Miguel de la Madrid -  Metro Zaragoza
18791,Calzada Ignacio Zaragoza - Oriente 253,,19.40079759,-99.0639782,Metro Zaragoza - Colonia Miguel de la Madrid,RTP,Colonia Miguel de la Madrid -  Metro Zaragoza
16929,Calzada La Mónera - Isidro Tapia,,19.2537133,-99.00579572,Mixquic - Metro Tasqueña,RTP,Mixquic - Metro Tasqueña
19737,Calzada México - Tacuba - Mar Tirreno,,19.4579938,-99.18308973,Metro Cuatro Caminos - Colonia Moctezuma 2da. Sección,RTP,Metro Cuatro Caminos -  Colonia Moctezuma 2da. Sección
17661,Calzada Tasqueña - Castellanos Quinto,,19.33942058,-99.13008928,Metro Tasqueña - Mixquic,RTP,Mixquic - Metro Tasqueña
27146,Camino A Desierto De Los Leones - 1 De Abril,,19.33312368,-99.28857565,Santa Rosa - Metro Mixcoac,RTP,Santa Rosa Xochiac - Metro Mixcoac
27116,Camino A Desierto De Los Leones - Centenario,,19.3266038,-99.2907536,Santa Rosa - Metro Mixcoac,RTP,Santa Rosa Xochiac - Metro Mixcoac
27403,Camino A Desierto De Los Leones - Cerrada De Las Flores,,19.34111119,-99.23302174,Santa Rosa - Metro Mixcoac,RTP,Santa Rosa Xochiac - Metro Mixcoac
33342,Camino A Desierto De Los Leones - Fugiyama,,19.36286479,-99.1962111,Metro Chapultepec - Puete Colorado,RTP,Puente Colorado - Metro Chapultepec
27337,Camino A Desierto De Los Leones - Luis Echeverría,,19.33030923,-99.25771952,Santa Rosa - Metro Mixcoac,RTP,Santa Rosa Xochiac - Metro Mixcoac
19074,Camino A La Brecha - Cocoyotes,,19.54948802,-99.12783623,Colonia Cocoyotes (La Brecha) -  Metro Indios Verdes,RTP,La Brecha Cocoyotes - Metro Indios Verdes
19065,Camino A La Brecha - Halcones,,19.54725362,-99.12770748,Colonia Cocoyotes (La Brecha) -  Metro Indios Verdes,RTP,La Brecha Cocoyotes - Metro Indios Verdes
27087,Camino A Las Minas - 12 De Octubre,,19.33276934,-99.02892709,Barranca de Guadalupe - Metro Constitución de 1917,RTP,Barranca de Guadalupe - Metro Constitución de 1917
25882,Camino A Las Minas - Benito Juárez,,19.33683908,-99.01892781,Metro Constitución de 1917 - Palmas,RTP,Metro Constitución de 1917 - Palmas
25946,Camino A Las Minas - Tejocote_1,,19.34165785,-99.01972175,Palmas - Metro Constitución de 1917,RTP,Metro Constitución de 1917 - Palmas
19318,Camino A Nativitas - Lirio Acuático,,19.25247758,-99.10109997,Bosque de Nativitas - Metro San Lázaro por Miramontes,RTP,Bosque de Nativitas - Metro San Lázaro por Miramontes
25869,Camino A San Pedro Mártir - 2da. Puerta Fovissste,,19.27499241,-99.16314483,Metro Taxqueña - San Pedro Mártir,RTP,Metro Tasqueña - San Pedro Martir por FOVISSSTE
25930,Camino A San Pedro Mártir - Melchor Ocampo,,19.27549878,-99.16461468,Metro Taxqueña - San Pedro Mártir,RTP,Metro Tasqueña - San Pedro Martir por FOVISSSTE
28315,Camino A Santa Fe - De La Laja,,19.38376536,-99.23141241,Jesús del Monte (Cuajimalpa ) - Metro Tacubaya Nocturno,RTP,Jesús del Monte (Cuajimalpa) - Metro Tacubaya (Noche Bus)
22872,Camino a Santa Fe - Uruguayos,,19.38869406,-99.21251893,Jesús del Monte (Cuajimalpa ) - Metro Tacubaya Nocturno,RTP,Jesús del Monte (Cuajimalpa) - Metro Tacubaya (Noche Bus)
19284,Camino De Hila Avenida Leandro Valle - Camino De Hila,,19.32738336,-99.32851911,San Lorenzo Acopilco - Metro Tacubaya,RTP,San Lorenzo Acopilco - Metro Tacubaya
18877,Canal De Chalco - Río Fuerte,,19.29489161,-99.07934189,Metro Universidad - Santa Catarina,RTP,Santa Catarina - Metro Universidad
16001,Canal de Miramontes - La Vereda,Bajo Puente Peatonal a un costado de la Bodega Aurrera,19.29094234,-99.12565827,Bosque de Nativitas - Metro San Lázaro por Miramontes,RTP,Bosque de Nativitas - Metro San Lázaro por Miramontes
20398,Candelaria Pérez - Laura Méndez De Cuenca,,19.32003304,-99.10044551,San Lázaro - Carmen Serdán,RTP,Metro San Lazáro - Carmen Serdàn
25515,Cañada - Cedro_1,,19.34735717,-99.01113868,Ampliación Santiago - Cetram Metro Constitución de 1917,RTP,Metro Constitución de 1917 - Ampliación Santiago
16998,Carlos A. Vidal - Everardo González,,19.29534729,-99.01228666,Santa Catarina -  Metro Universidad,RTP,Santa Catarina - Metro Universidad
16198,Carlota Armero - Santa Ana,Frente al TRIFE,19.32808193,-99.11345959,Carmen Serdan - San Lázaro,RTP,Metro San Lázaro - Carmen Serdàn
34574,Carlota Armero - Santa Ana_1,,19.32874,-99.11379218,M. San Lázaro - Xochimilco / Bosque de Nativitas por Cafetales,RTP,M. San Lázaro - Xochimilco / Bosque de Nativitas por Cafetales Expreso
21593,Carr. San Fco. Tlalnepantla - Camino a San Andres Ahuayucan,,19.21549308,-99.11924243,Pedregal de San Francisco Tlanepantla - Xochimilco/Palmas,RTP,Pedregal de San Francisco - Xochimilco/Palmas
39713,Carretera Federal A Cuernavaca - Camino a la Secundaria Tecnica 120,,19.13547844,-99.17409897,Parres - Estadio Azteca,RTP,Parres - Estadio Azteca
18503,Carretera México - Toluca - Galería Reforma,,19.38090118,-99.25508022,Metro Tacubaya - La Pila,RTP,La Pila - Metro Tacubaya
21313,Carretera San Bartolomé Xicomulco - Santa Catarina,,19.20942444,-99.07839775,San Bartolomé Xicomulco - Xochimilco/Palmas,RTP,San Bartolomé Xicomulco - Xochimilco/Palmas
19011,Carretera Xochimilco - San Pablo - El Conejo,,19.21756995,-99.11887765,San Bartolomé Xicomulco - Xochimilco/Palmas,RTP,San Bartolomé Xicomulco - Xochimilco/Palmas
25907,Cedral - Bugambilia,,19.2668295,-99.16078448,Metro Taxqueña - San Pedro Mártir,RTP,Metro Tasqueña - San Pedro Martir por FOVISSSTE
21300,Centenario - 5 De Mayo,,19.49916097,-99.09536004,Metro Chabacano - León de los Aldama,RTP,León de los Aldama - Metro Chabacano
19414,Centenario - Cerrito,,19.50180057,-99.0941155,León de los Aldama - Metro Chabacano,RTP,León de los Aldama - Metro Chabacano
17245,Cerro Del Chiquihuite - Cierre De Circuito San Juan,,19.52075185,-99.12925243,Metro Potrero - Zacatenco,RTP,Zacatenco - Metro Potrero
18737,Cetram Metro Zaragoza - Anden A,,19.4136389,-99.08230305,Avisadero/Colonia Ixtlahuacan -  Metro Zaragoza/M. Tepalcates,RTP,Colonia Ixtlahuacan Avisadero -  Metro Zaragoza
18921,Chalma La Villa - Instituto Politécnico Nacional,,19.53557558,-99.1492188,Metro Indios Verdes - El Tepetatal (El Charco),RTP,Colonia El Tepetatal (El Charco)  -  Metro Indios Verdes
29086,Cierre de Circuito Bosques - Regadera y Bosques,,19.26901712,-99.24184084,Cierre de Circuito Bosques - Metro Universidad,RTP,Bosques del Pedregal - Metro Universidad por López Portillo
18268,Cierre de Circuito Cerro Gordo - Cerro Chato,,19.57108228,-99.13465977,Lomas de Cuautepec - Metro Indios Verdes,RTP,Lomas de Cuautepec - Metro Indios Verdes
15777,Cierre de Circuito Metro La Raza - Frente al Metro La Raza,,19.46905029,-99.13645148,Metro La Raza (Línea 5) - El Tepetatal (El Charco) Expresso,RTP,El Tepetatal (El Charco) - Metro La Raza (Linea 5) Expreso
16002,Cierre de Circuito Zacatenco - Cerro del Chiquihuite,,19.5192773,-99.1295513,Zacatenco - Metro Potrero,RTP,Zacatenco - Metro Potrero
18314,Circuito Interior - Avenida Coyoacán,,19.35963585,-99.17148113,Oceanía Sur Nocturno,RTP,Circuito Bicentenario (Noche Bus)
18396,Circuito Interior - Avenida Oceanía,,19.44560114,-99.08689499,Oceanía Norte Nocturno,RTP,Circuito Bicentenario (Noche Bus)
18445,Circuito Interior - Centenario,,19.35803653,-99.16374564,Oceanía Norte Nocturno,RTP,Circuito Bicentenario (Noche Bus)
18394,Circuito Interior - Decorado,,19.45106415,-99.10502672,Oceanía Sur Nocturno,RTP,Circuito Bicentenario (Noche Bus)
28613,Circuito Interior Melchor Ocampo - Guillermo Prieto,,19.43849897,-99.16794062,Parque México - Metro Rosario por Plan de San Luis,RTP,Metro El Rosario - Parque México por Plan de San Luis
23396,Cruz Blanca - Avenida Morelos,,19.19991071,-99.14645076,Metro Universidad - Topilejo,RTP,Topilejo - Metro Universidad
23392,Cruz Blanca - Tejocotes,,19.19987018,-99.14885402,Metro Universidad - Topilejo,RTP,Topilejo - Metro Universidad
19264,Cuauhtémoc - Carretera A Oaxtepec,,19.24696741,-99.05662894,Metro Tasqueña - Villa Milpa Alta,RTP,Villa Milpa Alta - Metro Tasqueña
18524,Cuitláhuac - Piña,,19.47008205,-99.16994691,Panteón San Isidro - Aragón Nocturno,RTP,Aragón - Panteón San Isidro (Noche Bus)
19113,Cuitláhuac - Platanales,,19.47010228,-99.17115927,Aragón - Panteón San Isidro Nocturno,RTP,Aragón - Panteón San Isidro (Noche Bus)
30611,Del Rosal - La Teja,,19.30535164,-99.24709797,San Bernabel/Oyamel - Metro Universidad,RTP,Metro Universidad - San Bernabé/Oyamel
16951,Doctor Juan Palomo - 20 De Noviembre,,19.26600913,-99.00139689,Mixquic - Metro Tasqueña,RTP,Mixquic - Metro Tasqueña
26045,Eeje 2 Poniente Monterrey - Insurgentes,,19.41842503,-99.16430354,Parque México - Metro Rosario por Plan de San Luis,RTP,Metro El Rosario - Parque México por Plan de San Luis
25138,Eje 1 Andrés Molina - Eje 3 Av Morelos,,19.40963179,-99.12746072,Metro Chabacano - León de los Aldama,RTP,León de los Aldama - Metro Chabacano
20200,Eje 1 Norte Rayon - Aztecas,,19.44301121,-99.12888765,Metro Cuatro Caminos - Colonia Moctezuma 2da. Sección,RTP,Metro Cuatro Caminos -  Colonia Moctezuma 2da. Sección
16691,Eje 1 Oriente Avenida Canal de Miramontes - Acoxpa,,19.29328153,-99.12572265,Metro Tasqueña - Villa Milpa Alta,RTP,Villa Milpa Alta - Metro Tasqueña
31362,Eje 1 Oriente Avenida Canal de Miramontes - Aldebarán_1,,19.32117712,-99.13278222,Villa Milpa Alta - Metro Tasqueña,RTP,Villa Milpa Alta - Metro Tasqueña
19416,Eje 1 Oriente Avenida Canal de Miramontes - Gálvez Y Fuentes,,19.33665686,-99.13722396,Metro Tasqueña - Villa Milpa Alta,RTP,Villa Milpa Alta - Metro Tasqueña
19372,Eje 1 Oriente Avenida Canal de Miramontes - Retorno 50,,19.32549013,-99.1360867,Villa Milpa Alta - Metro Tasqueña,RTP,Villa Milpa Alta - Metro Tasqueña
23141,Eje 1 Ote Vidal Alcocer - Manuel de la Peña y Peña,,19.44008737,-99.12333012,Metro Chabacano - León de los Aldama,RTP,León de los Aldama - Metro Chabacano
21724,Eje 10 Sur - Avenida de los Insurgentes,,19.33864107,-99.19007421,Metro Miguel Ángel de Quevedo- Cierre de Circuito Santa Fe,RTP,ECOBÚS Santa Fe - Metro Miguel Ángel de Quevedo
16973,Eje 10 Sur - Panteón Santa Catarina,,19.30566553,-98.97470355,Santa Catarina -  Metro Universidad,RTP,Santa Catarina - Metro Universidad
16448,Eje 3 Oriente Francisco Del Paso Y Troncoso - Avenida Morelos,,19.4080532,-99.11303043,Carmen Serdan - San Lázaro,RTP,Metro San Lázaro - Carmen Serdàn
27060,Eje 5 Norte Avenida Deportivo Reynosa - UAM,,19.50478398,-99.18727398,Parque México - Metro Rosario por Plan de San Luis,RTP,Metro El Rosario - Parque México por Plan de San Luis
40099,Eje 5 Sur Av. Leyes de Reforma - 11 de Enero de 1861,,19.37712605,-99.06692863,Lienzo Charro/Santa Catarina - Central de Abasto,RTP,Lienzo Charro/Santa Catarina - Central de Abasto
15435,Eje 5 Sur Avenida De Las Torres - Batalla 5 de Mayo,,19.36550661,-99.03696299,Lienzo Charro/Santa Catarina - Central de Abasto,RTP,Lienzo Charro/Santa Catarina - Central de Abasto
17631,Eje 8 Popocatépetl - Pirineos,,19.36277369,-99.15824175,Metro Santa Martha - Metro Zapata,RTP,Metro Santa Martha - Metro Zapata
23198,Eje 8 Sur Jose Maria Rico - Avenida Coyoacán,,19.36729816,-99.17233944,Metro Zapata - San Mateo Tlaltenango,RTP,Metro Zapata - San Mateo Tlaltenango
17393,Eje Central Lázaro Cárdenas - Avenida Río Consulado,,19.4650142,-99.13317919,Metro Hidalgo/Alameda Central - Reclusorio Norte,RTP,Reclusorio Norte - Metro Hidalgo/Alameda Central
23725,Emiliano Zapata - Cuauhtémoc_1,,19.24912491,-99.12368417,Santiago Tepalcatlalpan - Republica del Salvador,RTP,Santiago Tepalcatlalpan - República del Salvador
30712,Emiliano Zapata - Jalapa,,19.32085313,-99.22402024,San Bernabel/Oyamel - Metro Universidad,RTP,Metro Universidad - San Bernabé/Oyamel
16357,Emiliano Zapata - México Coyoacán,,19.37005125,-99.16347742,Metro Mixcoac -  Metro Santa Martha,RTP,Metro Santa Martha -  Metro Mixcoac
20886,Escuela Naval Militar - Canal Nacional,,19.34886548,-99.11966085,Carmen Serdán - U.C.T.M. Atzacoalco,RTP,U.C.T.M. Atzacoalco - Carmen Serdán
18489,Felipe Ángeles - Francisco Villa,,19.35633598,-98.99662256,Avisadero/Colonia Miravalle - Metro Zaragoza/M. Tepalcates,RTP,Avisadero/Colonia Miravalle -  Metro Zaragoza
18637,Felipe Ángeles - Rubén Leñero,,19.5532187,-99.13262129,Metro La Raza (Línea 3) - Ampliación Malacates,RTP,Ampliación Malacates - Metro la Raza (Linea 3)
19614,Felipe Carrillo Puerto - Calzada Legaría,,19.4544936,-99.19729471,Metro Cuatro Caminos - Colonia Moctezuma 2da. Sección,RTP,Metro Cuatro Caminos -  Colonia Moctezuma 2da. Sección
18414,Ferrocarril San Rafael Atlixco - J. Bernal,,19.28422837,-99.01314497,Metro Tasqueña - Mixquic,RTP,Mixquic - Metro Tasqueña
17035,Fortuna - Avenida Insurgentes Norte Clínica 24,,19.4820278,-99.1290164,Zacatenco - Metro Potrero,RTP,Zacatenco - Metro Potrero
20431,Francisco I. Madero - Josefa Ortiz De Domínguez,,19.253926,-99.01326299,Xochimilco/Palmas - Tulyehualco,RTP,Tulyehualco - Xochimilco/Palmas
24288,Francisco Villa - Secundaria No. 160,,19.55095401,-99.14079666,Metro Potrero -  Colonia El Tepetatal (El Charco),RTP,Colonia El Tepetatal (El Charco) -  Metro Potrero
26931,Granjas - Cuitláhuac,,19.46917167,-99.17586923,Parque México - Metro El Rosario por Cuitláhuac,RTP,Metro El Rosario - Parque México por Cuitláhuac
18954,Guadalupe I. Ramírez - Unidad Infonavit,,19.24630901,-99.10725832,San Bartolomé Xicomulco - Xochimilco/Palmas,RTP,San Bartolomé Xicomulco - Xochimilco/Palmas
15306,José F. Gutiérrez - Otoño,,19.46778586,-99.18876529,Metro Martín Carrera - Metro Tacuba por Ceylán,RTP,Metro Martín Carrera - Metro Tacuba por Ceylán
29813,José Loreto Fabela - Avenida 412,,19.46684512,-99.08018947,Central de Abastos - León de los Aldama,RTP,San Felipe/León de Los Aldama -  Central de Abastos
16889,José María Morelos - Ignacio Allende,,19.21507771,-98.99407983,Metro Tasqueña - Villa Milpa Alta,RTP,Villa Milpa Alta - Metro Tasqueña
18493,José María Morelos - Palma,,19.21784348,-98.99398327,Metro Tasqueña - Mixquic,RTP,Mixquic - Metro Tasqueña
26006,Juan Escutía - Avenida Mazatlán,,19.41561206,-99.17662024,Metro El Rosario - Parque México por Cuitláhuac,RTP,Metro El Rosario - Parque México por Cuitláhuac
18950,La Turba - Abulón/Aida,,19.28933223,-99.0554595,Metro Universidad - Santa Catarina,RTP,Santa Catarina - Metro Universidad
29846,León De Los Aldama - Calpulalpan_1,,19.49623815,-99.07732487,Metro Chabacano - León de los Aldama,RTP,León de los Aldama - Metro Chabacano
18381,Luis Espinoza - Frente Cetis 7,,19.53463523,-99.15676117,Metro Potrero -  Colonia El Tepetatal (El Charco),RTP,Colonia El Tepetatal (El Charco) -  Metro Potrero
28323,Manuel Ávila Camacho - Avenida Gustavo Díaz Ordaz,,19.37879602,-99.21968579,Metro Tacubaya - Piloto,RTP,Piloto - Metro Tacubya
18842,Mariano Escobedo - Gutemberg,,19.43136612,-99.18083668,Metro Chapultepec - Metro Rosario,RTP,Metro El Rosario - Metro Chapultepec
26848,Marina Nacional - Laguna De Términos,,19.44265712,-99.17751074,Parque México - Metro El Rosario por Cuitláhuac,RTP,Metro El Rosario - Parque México por Cuitláhuac
24487,mejoramiento ambiental,,19.35690283,-98.98537874,San Miguel Teotongo/Torres -  Metro Zaragoza/M. Tepalcates,RTP,San Miguel Teotongo/Torres  -  Metro Zaragoza/M. Tepalcates
17496,Metro Santa Martha,,19.35950426,-98.99516344,Avisadero/Colonia Ixtlahuacan -  Metro Zaragoza/M. Tepalcates,RTP,Colonia Ixtlahuacan Avisadero -  Metro Zaragoza
18531,México Norte - Puebla Poniente,,19.19476354,-99.02358413,San Salvador Cuahutenco - Villa Milpa Alta,RTP,San Salvador Cuahutenco - Villa Milpa Alta
18555,Miguel Bernard - Othón De Mendizábal,,19.50967867,-99.139992,Colonia El Tepetatal (El Charco) -  Metro Potrero,RTP,Colonia El Tepetatal (El Charco) -  Metro Potrero
18553,Miguel Bernard - Plan De San Luis,,19.51224731,-99.14046407,Metro Potrero -  Colonia El Tepetatal (El Charco),RTP,Colonia El Tepetatal (El Charco) -  Metro Potrero
17440,Misterios - Calzada De La Ronda,,19.45412942,-99.13064718,La Villa/Cantera - Centro Comercial Santa Fe Nocturno,RTP,Centro Comercial Santa Fe -  La Villa/Cantera por Palmas (Noche Bus)
15693,Municipio Libre - Miravalle,,19.36758157,-99.13927317,Metro Santa Martha -  Metro Mixcoac,RTP,Metro Santa Martha -  Metro Mixcoac
23000,Oaxaca - San Lorenzo,,19.33963317,-99.00150418,Metro Zaragoza - Colonia Miguel de la Madrid,RTP,Colonia Miguel de la Madrid -  Metro Zaragoza
22107,Ocampo - Avenida Veracruz,,19.35581974,-99.29973364,Jesús del Monte (Cuajimalpa ) - Metro Tacubaya Nocturno,RTP,Jesús del Monte (Cuajimalpa) - Metro Tacubaya (Noche Bus)
20668,Oceanía  - Plaza África,,19.44237384,-99.09810662,Metro Cuatro Caminos - Colonia Moctezuma 2da. Sección,RTP,Metro Cuatro Caminos -  Colonia Moctezuma 2da. Sección
25169,Octavio Sentéis - Sauces,,19.34818725,-99.01144981,Cetram Metro Constitución de 1917 - Ampliación Santiago,RTP,Metro Constitución de 1917 - Ampliación Santiago
21074,Oriente 172 - Avenida Del  Peñón,,19.43927799,-99.08983469,Colonia Moctezuma 2da. Sección - Metro Cuatro Caminos,RTP,Metro Cuatro Caminos -  Colonia Moctezuma 2da. Sección
18687,Parque Vía - Hacienda de en medio,,19.50454126,-99.20699358,Metro Rosario  - Metro Chapultepec,RTP,Metro El Rosario - Metro Chapultepec
28984,Peto - Yobain,,19.2744506,-99.222942,Cierre de Circuito Bosques - Metro Universidad,RTP,Bosques del Pedregal - Metro Universidad por López Portillo
28793,Plan De San Luis - Cuitláhuac,,19.47111381,-99.16600943,Parque México - Metro Rosario por Plan de San Luis,RTP,Metro El Rosario - Parque México por Plan de San Luis
25172,primavera - estrellita (avisadero),,19.33719341,-98.99056077,Avisadero/Colonia Ixtlahuacan -  Metro Zaragoza/M. Tepalcates,RTP,Colonia Ixtlahuacan Avisadero -  Metro Zaragoza
22264,Prolongación Bosques De La Reforma - Prolongación Paseo De,,19.38286461,-99.26657081,Col. Navidad ( las piedras) - Metro Tacubaya,RTP,Col. Navidad (Las Piedras) - Metro Tacubaya
22270,Prolongación Bosques De La Reforma - Royal Reforma,,19.38430175,-99.26476836,Col. Navidad ( las piedras) - Metro Tacubaya,RTP,Col. Navidad (Las Piedras) - Metro Tacubaya
16072,Prolongación División Del Norte - Unidad Habitacional Rosalina,,19.26897661,-99.1170001,Xochimilco/Bosque de Nativitas - Alameda Oriente Nocturno,RTP,Alameda Oriente - Xochimilco / Bosque de Nativitas (Noche Bus)
15980,Prolongación División Del Norte - Villa De Ayala,Bajo Puente,19.27924588,-99.12290096,Xochimilco/Bosque de Nativitas - Alameda Oriente Nocturno,RTP,Alameda Oriente - Xochimilco / Bosque de Nativitas (Noche Bus)
27410,Puente Colorado Calzada De Las Águilas - Petreles,,19.34724581,-99.23395514,Metro Miguel Ángel de Quevedo- Cierre de Circuito Santa Fe,RTP,ECOBÚS Santa Fe - Metro Miguel Ángel de Quevedo
18570,Puerto Mazatlán - Luis Echeverría,,19.5268797,-99.14064646,Metro Indios Verdes - El Tepetatal (El Charco),RTP,Colonia El Tepetatal (El Charco)  -  Metro Indios Verdes
18569,Puerto Mazatlán - Moctezuma,,19.52351244,-99.14026022,Metro Indios Verdes - El Tepetatal (El Charco),RTP,Colonia El Tepetatal (El Charco)  -  Metro Indios Verdes
28368,Rabaul - Norte 73,,19.47482607,-99.17422771,Metro El Rosario - Parque México por Plan de San Luis,RTP,Metro El Rosario - Parque México por Plan de San Luis
20063,Ricardo Flores Magón - Zaragoza,,19.45277383,-99.14731979,Metro Cuatro Caminos - Colonia Moctezuma 2da. Sección,RTP,Metro Cuatro Caminos -  Colonia Moctezuma 2da. Sección
21859,San Bartolo Naucalpan - Río Uruguay,,19.45932912,-99.20515895,Colonia Moctezuma 2da. Sección - Metro Cuatro Caminos,RTP,Metro Cuatro Caminos -  Colonia Moctezuma 2da. Sección
26038,San Luis Potosí - Medellín,,19.41300141,-99.16505456,Parque México - Metro Rosario por Plan de San Luis,RTP,Metro El Rosario - Parque México por Plan de San Luis
16005,Santa Cruz - La Presa,,19.52030692,-99.12499309,Zacatenco - Metro Potrero,RTP,Zacatenco - Metro Potrero
22307,Sindicato De Trabajadores De La Industria Militar - Bosques De,,19.39219568,-99.25938249,Col. Navidad ( las piedras) - Metro Tacubaya,RTP,Col. Navidad (Las Piedras) - Metro Tacubaya
24065,Sn Antonio Abad - Torquemada,,19.40858952,-99.13594723,Republica del Salvador - Santiago Tepalcatlalpan,RTP,Santiago Tepalcatlalpan - República del Salvador
18279,Tata Nacho - Raúl Helmer,,19.56539081,-99.13909078,Lomas de Cuautepec - Metro Indios Verdes,RTP,Lomas de Cuautepec - Metro Indios Verdes
15303,Tenochtitlán - Circunvalación,,19.42266464,-99.05892491,Metro Pantitlán - Arenal 4ta. Sección,RTP,Arenal 4ta. Sección - Metro Pantitlán
16032,Terminal Bosque De Nativitas,,19.24963136,-99.09459829,Alameda Oriente - Xochimilco/Bosque de Nativitas Nocturno,RTP,Alameda Oriente - Xochimilco / Bosque de Nativitas (Noche Bus)
20647,Terminal Palmitas - Jacarandas,,19.33454101,-99.02563334,Cetram Metro Constitución de 1917 - Palmitas,RTP,Metro Constitución de 1917 - Palmitas
20757,Terminal Tlacuitlapa/Puerta Grande,Avenida Centenario - Boulevard Del Durazno,19.35375475,-99.24484491,Metro Mixcoac - Tlacuitlapa Puerta Grande,RTP,Metro Mixcoac - Puerta Grande Tlacuitlapa
19286,Terminal U. C. T. M. Atzacoalco,Fernando Amilpa - Francisco J. Macin,19.51119559,-99.10098195,U.C.T.M. Atzacoalco - Carmen Serdán,RTP,U.C.T.M. Atzacoalco - Carmen Serdán
22330,Tetiz - Tinum,,19.29383848,-99.23547864,Pedregal de San Nicolás - Metro Universidad,RTP,Pedregal de San Nicolás - Metro Universidad
24804,Tlahuitla - Tlacuitlapa,,19.34449235,-99.00196552,Colonia Miguel de la Madrid-Metro Zaragoza,RTP,Colonia Miguel de la Madrid -  Metro Zaragoza
22935,Tlaola - Oaxaca,,19.341506,-99.00223374,Metro Zaragoza - Colonia Miguel de la Madrid,RTP,Colonia Miguel de la Madrid -  Metro Zaragoza
18317,Venustiano Carranza - Francisco I. Madero,,19.55526093,-99.1360116,Ampliación Malacates - Metro La Raza (Línea 3),RTP,Ampliación Malacates - Metro la Raza (Linea 3)
19745,Vicente Guerrero - Everardo González,,19.29365621,-99.01250124,Metro Universidad - Santa Catarina,RTP,Santa Catarina - Metro Universidad
29281,Yobain - Hopelchen,,19.28093711,-99.22345161,Metro Universidad - Cierre de Circuito Bosques,RTP,Bosques del Pedregal - Metro Universidad por López Portillo
23707,Avenida Insurgentes - Morelos,,19.33819564,-99.04715538,Colonia Buenavista - Central de Abastos,RTP,Colonia Buenavista - Central de Abasto
21852,Avenida Jesús del Monte - Adolfo López Mateos,,19.36216637,-99.29328561,Jesús del Monte (Cuajimalpa ) - Metro Tacubaya Nocturno,RTP,Jesús del Monte (Cuajimalpa) - Metro Tacubaya (Noche Bus)
22472,Avenida José Serrano - Frente al Colegio Westhill,,19.35850216,-99.26488638,Santa Rosa - Metro Tacubaya (Cartagena),RTP,Santa Rosa Xochiac - Metro Tacubaya
19484,Avenida México - Alcocatitla,,19.24931736,-99.07125235,Metro Tasqueña - Villa Milpa Alta,RTP,Villa Milpa Alta - Metro Tasqueña
22105,Avenida México - Flores Magón,,19.30851078,-99.23192739,Metro Universidad - Pedregal de San Nicolás,RTP,Pedregal de San Nicolás - Metro Universidad
22176,Avenida México - Privada Ferrocarril A Cuernavaca,,19.30535164,-99.23441648,Pedregal de San Nicolás - Metro Universidad,RTP,Pedregal de San Nicolás - Metro Universidad
28299,Avenida Miguel Hidalgo - Avenida Santa Lucia,,19.36925164,-99.22451377,Metro Mixcoac - Presidentes,RTP,Presidentes - Metro Mixcoac
19229,Avenida Miguel Hidalgo - Cerrada Hidalgo,,19.20327452,-99.04317498,Villa Milpa Alta - San Salvador Cuahutenco,RTP,San Salvador Cuahutenco - Villa Milpa Alta
22142,Avenida Noche De Paz - Camino Al Huizachito,,19.37337108,-99.27938104,Col. Navidad ( las piedras) - Metro Tacubaya,RTP,Col. Navidad (Las Piedras) - Metro Tacubaya
18461,Avenida Norte Del Comercio - La Barranca_1,,19.2440907,-99.00206208,Metro Tasqueña - Mixquic,RTP,Mixquic - Metro Tasqueña
24091,Avenida Paseo De La Reforma - Avenida Monte Blanco,,19.42331221,-99.21623111,La Villa/Cantera -Centro Comercial Santa Fe  por Reforma,RTP,Centro Comercial Santa Fe - La Villa/Cantera por Reforma
23989,Avenida Paseo De La Reforma - Bocanegra,,19.44643072,-99.13693428,La Villa/Cantera - Centro Comercial Santa Fe Nocturno,RTP,Centro Comercial Santa Fe -  La Villa/Cantera por Palmas (Noche Bus)
22422,Avenida Paseo De La Reforma - Castillo De Windsor,,19.40264947,-99.2314446,Col. Navidad ( las piedras) - Metro Tacubaya,RTP,Col. Navidad (Las Piedras) - Metro Tacubaya
24125,Avenida Paseo De La Reforma - Explanada II,,19.41583467,-99.21914935,La Villa/Cantera -Centro Comercial Santa Fe  por Reforma,RTP,Centro Comercial Santa Fe - La Villa/Cantera por Reforma
24077,Avenida Paseo De La Reforma - Monte Altai,,19.42505254,-99.20889258,La Villa/Cantera -Centro Comercial Santa Fe  por Reforma,RTP,Centro Comercial Santa Fe - La Villa/Cantera por Reforma
24327,Avenida Paseo De La Reforma - Montes Urales_1_2,,19.42427344,-99.2102015,Centro Comercial Santa Fe -La Villa/Cantera por Reforma,RTP,Centro Comercial Santa Fe - La Villa/Cantera por Reforma
23987,Avenida Paseo De La Reforma - Unidad Habitacional Tlatelolco,,19.45313802,-99.13196683,La Villa/Cantera -Centro Comercial Santa Fe  por Reforma,RTP,Centro Comercial Santa Fe - La Villa/Cantera por Reforma
19119,Avenida Paseo De La Reforma - Varsovia,,19.42627683,-99.16885257,Centro Comercial Santa Fe - La Villa/Cantera,RTP,Centro Comercial Santa Fe -  La Villa/Cantera por Palmas (Noche Bus)
27097,Avenida Patriotismo - 11de Abril,,19.39704316,-99.18091178,Puente Colorado - Metro Chapultepec,RTP,Puente Colorado - Metro Chapultepec
26895,Avenida Patriotismo - INEGI,,19.37980812,-99.18517113,Puente Colorado - Metro Chapultepec,RTP,Puente Colorado - Metro Chapultepec
15257,Avenida Poniente 152 - Ex-Hacienda,,19.5061897,-99.16730762,Metro Tacuba -  Metro Martín Carrera  por Ceylán,RTP,Metro Martín Carrera - Metro Tacuba por Ceylán
15259,Avenida Poniente 152 - Sol de México,,19.507201,-99.17052627,Metro Tacuba -  Metro Martín Carrera  por Ceylán,RTP,Metro Martín Carrera - Metro Tacuba por Ceylán
17670,Avenida Popocatépetl - Eje Central Lázaro Cárdenas,,19.36129588,-99.15163279,Metro Zapata - Metro Santa Martha,RTP,Metro Santa Martha - Metro Zapata
18393,Avenida Prado El Rosario - Antes de Paraderos,,19.50041504,-99.19846416,Metro Tacuba - Metro Rosario,RTP,Metro Rosario - Metro Tacuba
18684,Avenida Puerto México - Puerto Ángel,,19.35387622,-99.30837035,Metro Tacubaya -  Chimalpa,RTP,Chimalpa - Metro Tacubaya
17185,Avenida Revolución - Dr. Gálvez,,19.34388496,-99.1904819,Metro Chapultepec - Pedregal de San Nicolás,RTP,Metro Chapultepec - Torres de Padierna/Pedregal de San Nicolás
26774,Avenida Revolución - Eje 10 Sur Rio Magdalena,,19.33842848,-99.19214487,Metro Universidad - Pedregal de San Nicolás,RTP,Pedregal de San Nicolás - Metro Universidad
17147,Avenida Revolución - Juan Tinoco,,19.36475759,-99.18904424,Metro Chapultepec - Puete Colorado,RTP,Puente Colorado - Metro Chapultepec
17093,Avenida Revolución - Rembrandt,,19.38116432,-99.18709159,Metro Chapultepec - Puete Colorado,RTP,Puente Colorado - Metro Chapultepec
23758,Avenida Rojo Gómez - Allende,,19.35983829,-99.0845561,Colonia Buenavista - Central de Abastos,RTP,Colonia Buenavista - Central de Abasto
30686,Avenida San Francisco - Callejón Del Recuerdo,,19.31366451,-99.23395514,San Bernabel/Oyamel - Metro Universidad,RTP,Metro Universidad - San Bernabé/Oyamel
30687,Avenida San Francisco - Reforma,,19.31449476,-99.23242092,San Bernabel/Oyamel - Metro Universidad,RTP,Metro Universidad - San Bernabé/Oyamel
29721,Avenida San Jerónimo - Azucena,,19.31032321,-99.24572468,Metro Universidad - San Bernabel/Oyamel,RTP,Metro Universidad - San Bernabé/Oyamel
29627,Avenida San Jerónimo - Magnolia,,19.32208833,-99.23014641,Metro Universidad - San Bernabel/Oyamel,RTP,Metro Universidad - San Bernabé/Oyamel
15665,Avenida San Juan de Aragón - Anzar,,19.48109726,-99.10354614,Metro Tacuba - Metro Martín Carrera,RTP,Metro Tacuba - Metro Martín Carrera (por Ceylan) Expreso
28524,Avenida Sonora - Ámsterdam,,19.41503529,-99.16961432,Metro El Rosario - Parque México por Plan de San Luis,RTP,Metro El Rosario - Parque México por Plan de San Luis
18477,Avenida Sur Del Comercio - Educación Tecnológica,,19.23202622,-98.99474502,Metro Tasqueña - Mixquic,RTP,Mixquic - Metro Tasqueña
18326,Avenida Tecnológico - Sor Juana Inés De La Cruz,,19.54767826,-99.14330721,Metro Potrero -  Colonia El Tepetatal (El Charco),RTP,Colonia El Tepetatal (El Charco) -  Metro Potrero
19299,Avenida Tenochtitlán - Ignacio Zaragoza,,19.2477271,-99.07320499,Villa Milpa Alta - Metro Tasqueña,RTP,Villa Milpa Alta - Metro Tasqueña
18217,Avenida Tláhuac - Paseo Antioquía,,19.32236169,-99.09772038,Metro Tasqueña - Mixquic,RTP,Mixquic - Metro Tasqueña
16946,Avenida Tláhuac - Tulyehualco - Dr. Juan Palomo,,19.2658167,-99.00666475,Mixquic - Metro Tasqueña,RTP,Mixquic - Metro Tasqueña
22614,Avenida Vasco de Quiroga - Acceso a Televisa,,19.37749041,-99.25146461,Centro Comercial Santa Fe - La Villa/Cantera,RTP,Centro Comercial Santa Fe -  La Villa/Cantera por Palmas (Noche Bus)
21340,Avenida Vasco De Quiroga - Ernesto Domínguez,,19.36720707,-99.26440358,Metro Tacubaya - Jesús del Monte (Cuajimalpa) Nocturno,RTP,Jesús del Monte (Cuajimalpa) - Metro Tacubaya (Noche Bus)
22597,Avenida Vasco de Quiroga - Espinoza Gutiérrez,,19.3763366,-99.25398588,Centro Comercial Santa Fe - La Villa/Cantera,RTP,Centro Comercial Santa Fe -  La Villa/Cantera por Palmas (Noche Bus)
22656,Avenida Vasco de Quiroga - General Antonio Rosales,,19.37989921,-99.2443943,Jesús del Monte (Cuajimalpa ) - Metro Tacubaya Nocturno,RTP,Jesús del Monte (Cuajimalpa) - Metro Tacubaya (Noche Bus)
21322,Avenida Vasco De Quiroga - Joaquín Gallo,,19.37200469,-99.2603159,Metro Tacubaya - Jesús del Monte (Cuajimalpa) Nocturno,RTP,Jesús del Monte (Cuajimalpa) - Metro Tacubaya (Noche Bus)
24383,Avenida Vasco de Quiroga - Progreso,,19.38211568,-99.23937321,Metro Tacubaya - Jesús del Monte (Cuajimalpa) Nocturno,RTP,Jesús del Monte (Cuajimalpa) - Metro Tacubaya (Noche Bus)
22674,Avenida Vasco de Quiroga - Tlapechico,,19.38054695,-99.24211979,Jesús del Monte (Cuajimalpa ) - Metro Tacubaya Nocturno,RTP,Jesús del Monte (Cuajimalpa) - Metro Tacubaya (Noche Bus)
20166,Avenida Veracruz - Carretera México - Toluca,,19.35010046,-99.30211544,Jesús del Monte (Cuajimalpa ) - Metro Tacubaya Nocturno,RTP,Jesús del Monte (Cuajimalpa) - Metro Tacubaya (Noche Bus)
29834,Baja California Sur - Estado De Morelos,,19.48492054,-99.07487869,Central de Abastos - León de los Aldama,RTP,San Felipe/León de Los Aldama -  Central de Abastos
21596,Boleo - Canal 2 Norte,,19.45194428,-99.12477851,Metro Chabacano - León de los Aldama,RTP,León de los Aldama - Metro Chabacano
19950,Calzada De La Viga - Avenida Emilio Carranza,,19.37006137,-99.12261128,U.C.T.M. Atzacoalco - Carmen Serdán,RTP,U.C.T.M. Atzacoalco - Carmen Serdán
19797,Calzada De La Viga - Avenida Santiago,,19.39029307,-99.12222505,U.C.T.M. Atzacoalco - Carmen Serdán,RTP,U.C.T.M. Atzacoalco - Carmen Serdán
19897,Calzada De La Viga - Eje 6 Sur Playa Pie De La Cuesta,,19.37579006,-99.12279367,U.C.T.M. Atzacoalco - Carmen Serdán,RTP,U.C.T.M. Atzacoalco - Carmen Serdán
19906,Calzada De La Viga - Porto Alegre,,19.37343181,-99.12270784,U.C.T.M. Atzacoalco - Carmen Serdán,RTP,U.C.T.M. Atzacoalco - Carmen Serdán
31891,Calzada De Tlalpan - Metro Nativitas_1,,19.37998018,-99.14033532,Republica del Salvador - Santiago Tepalcatlalpan,RTP,Santiago Tepalcatlalpan - República del Salvador
23979,Calzada De Tlalpan - Normandía,,19.37452491,-99.14061427,Santiago Tepalcatlalpan - Republica del Salvador,RTP,Santiago Tepalcatlalpan - República del Salvador
23965,Calzada De Tlalpan - Patinadores,,19.34823786,-99.14510965,Santiago Tepalcatlalpan - Republica del Salvador,RTP,Santiago Tepalcatlalpan - República del Salvador
24170,Calzada De Tlalpan - Popocatepetl,,19.35984841,-99.14347887,Republica del Salvador - Santiago Tepalcatlalpan,RTP,Santiago Tepalcatlalpan - República del Salvador
15626,Calzada Ermita Iztapalapa - Avenida Cinco,,19.35664977,-99.11109924,Metro Santa Martha -  Metro Mixcoac,RTP,Metro Santa Martha -  Metro Mixcoac
15211,Calzada Ermita Iztapalapa - Jalisco,,19.34482641,-99.025172,Metro Santa Martha -  Metro Mixcoac,RTP,Metro Santa Martha -  Metro Mixcoac
19055,Anillo Periférico Sur - Miguel Cabrera,,19.37059781,-99.19151187,Cetram Metro Constitución de 1917 - Cetram Metro Cuatro Caminos Nocturno,RTP,Metro Constitución de 1917 - Metro Cuatro Caminos (Noche Bus)
19037,Anillo Periférico Sur - San Jerónimo,,19.33096729,-99.2102015,Cetram Metro Constitución de 1917 - Cetram Metro Cuatro Caminos Nocturno,RTP,Metro Constitución de 1917 - Metro Cuatro Caminos (Noche Bus)
30236,Armada De México - Rancho Vista Hermosa_1,,19.30566553,-99.11177516,Bosque de Nativitas - Metro San Lázaro por Cafetales,RTP,Bosque de Nativitas - Metro San Lázaro por Cafetales
15600,Antigua Calzada de Guadalupe - Norte 59,,19.49011925,-99.16650295,Metro Tacuba -  Metro Martín Carrera  por Ceylán,RTP,Metro Martín Carrera - Metro Tacuba por Ceylán
19715,Aquiles Serdán - Miguel Parra,,19.25822053,-99.02265072,Tulyehualco - Xochimilco/Palmas,RTP,Tulyehualco - Xochimilco/Palmas
24468,16 De Septiembre - Paseo De La Virgen,,19.28099787,-99.13796425,Republica del Salvador - Santiago Tepalcatlalpan,RTP,Santiago Tepalcatlalpan - República del Salvador
23681,15 de septiembre y tetepetongo,,19.35490871,-98.99563551,Avisadero/Colonia Miravalle - Metro Zaragoza/M. Tepalcates,RTP,Avisadero/Colonia Miravalle -  Metro Zaragoza
19184,Cantera La Villa,,19.48640735,-99.11404967,Centro Comercial Santa Fe - La Villa/Cantera,RTP,Centro Comercial Santa Fe -  La Villa/Cantera por Palmas (Noche Bus)
15533,18 de Marzo - Puerto Acapulco,,19.55446223,-99.1428566,Metro Indios Verdes - El Tepetatal (El Charco),RTP,Colonia El Tepetatal (El Charco)  -  Metro Indios Verdes
34769,Estación 41434769,,19.35287408,-99.16349888,Río Guadalupe - General Anaya,RTP,Metro General Anaya - Río De Guadalupe
25525,Anillo de circunvalación - Emiliano Zapata,,19.4327826,-99.12451029,Metro Chabacano - León de los Aldama,RTP,León de los Aldama - Metro Chabacano
23105,Ángel Albino Corzo - Norte 72 A,,19.46191879,-99.10738707,Panteón San Isidro - Aragón Nocturno,RTP,Aragón - Panteón San Isidro (Noche Bus)
22740,Angel Albino Corzo - Norte 70,,19.46269771,-99.10882473,Aragón - Panteón San Isidro Nocturno,RTP,Aragón - Panteón San Isidro (Noche Bus)
29732,Américo Vespucio - Pedro Mendoza,,19.3783194,-99.2167748,Piloto - Metro Tacubaya,RTP,Piloto - Metro Tacubya
15534,18 de Marzo - Puerto Vallarta,,19.55634269,-99.14137602,Metro Indios Verdes - El Tepetatal (El Charco),RTP,Colonia El Tepetatal (El Charco)  -  Metro Indios Verdes
15290,Acolhuacan - Chimalpopoca,,19.42630718,-99.05682206,Metro Pantitlán - Arenal 4ta. Sección,RTP,Arenal 4ta. Sección - Metro Pantitlán
20751,5 De Mayo - Mercado De Tecomitl,,19.21695196,-98.98967028,Mixquic - Metro Tasqueña,RTP,Mixquic - Metro Tasqueña
17116,Anillo Periférico Canal de Garay - Antonio Díaz Soto Y Gama,,19.3589779,-99.0576911,Xochimilco/Bosque de Nativitas - Alameda Oriente Nocturno,RTP,Alameda Oriente - Xochimilco / Bosque de Nativitas (Noche Bus)
15887,Anillo Periférico Canal de Garay - Eje 6 Sur Luis Méndez,,19.36343162,-99.0573585,Alameda Oriente - Xochimilco/Bosque de Nativitas Nocturno,RTP,Alameda Oriente - Xochimilco / Bosque de Nativitas (Noche Bus)
17153,Anillo Periférico Canal de Garay - Chimalhuacan_1,,19.42171352,-99.05569553,Xochimilco/Bosque de Nativitas - Alameda Oriente Nocturno,RTP,Alameda Oriente - Xochimilco / Bosque de Nativitas (Noche Bus)
22144,Avenida 16 de Septiembre - Mariano Escobedo,,19.34771147,-99.30235147,Jesús del Monte (Cuajimalpa ) - Metro Tacubaya Nocturno,RTP,Jesús del Monte (Cuajimalpa) - Metro Tacubaya (Noche Bus)
19791,Autopista México - Cuernavaca - Puente Peatonal Violeta,,19.26684975,-99.16491508,Estadio Azteca - Caseta,RTP,Estadio Azteca - Caseta Cuernavaca
19806,Autopista México - Cuernavaca - Cuernavaca 60,,19.26188699,-99.16618109,Estadio Azteca - Caseta,RTP,Estadio Azteca - Caseta Cuernavaca
26339,Av. Gustavo Díaz Ordaz - Villazueta,,19.38277353,-99.222368,Jalalpa - Metro Tacubaya,RTP,Ampliación Jalalpa - Metro Tacubaya
34414,Estación 41434414,,19.35115323,-99.17275786,Metro General Anaya - Rio de Guadalupe,RTP,Metro General Anaya - Río De Guadalupe
34534,Estación 41434534,,19.34641573,-99.2227006,Río Guadalupe - General Anaya,RTP,Metro General Anaya - Río De Guadalupe
22260,Avenida Arteaga y Salazar - Camino a San Mateo,,19.34978666,-99.28578615,Jesús del Monte (Cuajimalpa ) - Metro Tacubaya Nocturno,RTP,Jesús del Monte (Cuajimalpa) - Metro Tacubaya (Noche Bus)
15573,Avenida Azcapotzalco - San Simón,,19.48714569,-99.18522477,Metro Tacuba -  Metro Martín Carrera  por Ceylán,RTP,Metro Martín Carrera - Metro Tacuba por Ceylán
15575,Avenida Azcapotzalco - Tepantongo,,19.49100929,-99.18631911,Metro Tacuba -  Metro Martín Carrera  por Ceylán,RTP,Metro Martín Carrera - Metro Tacuba por Ceylán
36560,Avenida Benito Juárez - Eje 5 Norte,,19.51052815,-99.19113636,Metro Tacuba - Metro Rosario,RTP,Metro Rosario - Metro Tacuba
15718,Avenida Benito Juárez - Luis Espinoza,,19.5353228,-99.1579628,El Tepetatal (El Charco) - Metro La Raza (Línea 5) Expresso,RTP,El Tepetatal (El Charco) - Metro La Raza (Linea 5) Expreso
25488,Avenida Carlos Hank González - Jacarandas_1,,19.34554515,-99.011482,Ampliación Santiago - Cetram Metro Constitución de 1917,RTP,Metro Constitución de 1917 - Ampliación Santiago
25420,Avenida Carlos Hank González - Temazcal_1,,19.34374323,-99.00901437,Ampliación Santiago - Cetram Metro Constitución de 1917,RTP,Metro Constitución de 1917 - Ampliación Santiago
24805,Avenida Centenario - 5 de Mayo,,19.36170076,-99.2255652,Tlacuitlapa Puerta Grande - Metro Mixcoac,RTP,Metro Mixcoac - Puerta Grande Tlacuitlapa
24697,Avenida Centenario - Camino Punta Cehuayo,,19.35597157,-99.23939466,Tlacuitlapa Puerta Grande - Metro Mixcoac,RTP,Metro Mixcoac - Puerta Grande Tlacuitlapa
15417,Avenida Ceylan - Poniente 140,,19.49910029,-99.17212486,Metro Tacuba -  Metro Martín Carrera  por Ceylán,RTP,Metro Martín Carrera - Metro Tacuba por Ceylán
15264,Avenida Ceylan - Poniente 148,,19.50596721,-99.17478561,Metro Tacuba -  Metro Martín Carrera  por Ceylán,RTP,Metro Martín Carrera - Metro Tacuba por Ceylán
35888,Avenida Chapultepec - Las Flores_1,,19.4172108,-99.17914152,Metro Balderas - Cierre de Circuito Santa Fe,RTP,ECOBÚS Santa Fe - Metro Balderas
133993,Avenida Chapultepec - Metro Chapultepec,,19.42091417,-99.17423844,Cierre de circuito Santa Fe - Metro Balderas,RTP,ECOBÚS Santa Fe - Metro Balderas
27025,Avenida Chicago - Cerrada Chicago,,19.38358319,-99.21452522,Metro Tacubaya - Jalalpa,RTP,Ampliación Jalalpa - Metro Tacubaya
27036,Avenida Chicago - Matamoros,,19.38372488,-99.22149897,Metro Tacubaya - Jalalpa,RTP,Ampliación Jalalpa - Metro Tacubaya
35895,Avenida Constituyentes - Panteón Dolores,,19.40585733,-99.20322776,Metro Balderas - Cierre de Circuito Santa Fe,RTP,ECOBÚS Santa Fe - Metro Balderas
20349,Avenida Constituyentes - SEDESOL,,19.39666873,-99.22052264,La Pila - Metro Tacubaya,RTP,La Pila - Metro Tacubaya
19310,Avenida Cuitláhuac - Begonias,,19.46329454,-99.17771459,Metro El Rosario - Parque México por Cuitláhuac,RTP,Metro El Rosario - Parque México por Cuitláhuac
20839,Avenida Cuitláhuac - Poniente  44,,19.46055315,-99.1776824,Parque México - Metro El Rosario por Cuitláhuac,RTP,Metro El Rosario - Parque México por Cuitláhuac
19024,Avenida Cuitláhuac - Vallejo,,19.47320766,-99.14565682,Aragón - Panteón San Isidro Nocturno,RTP,Aragón - Panteón San Isidro (Noche Bus)
19358,Avenida De Las Culturas - Cultura Norte_1,,19.51138773,-99.1972518,Sullivan - Metro Rosario,RTP,Metro el Rosario  - Sullivan
22053,Avenida Del Imán - Totonacas,,19.31134586,-99.16890621,Topilejo - Metro Universidad,RTP,Topilejo - Metro Universidad
19205,Avenida Fabián Flores - Benito Juárez,,19.18934262,-99.08010364,Villa Milpa Alta - San Salvador Cuahutenco,RTP,San Salvador Cuahutenco - Villa Milpa Alta
28303,Avenida Gustavo Díaz Ordaz - Puerto Francisco Villa,,19.37165044,-99.23063993,Metro Mixcoac - Presidentes,RTP,Presidentes - Metro Mixcoac
19694,Avenida H. Congreso De La Unión - Emiliano Zapata,,19.43221601,-99.11922097,U.C.T.M. Atzacoalco - Carmen Serdán,RTP,U.C.T.M. Atzacoalco - Carmen Serdán
21078,Avenida H. Congreso De La Unión - Lorenzo Boturini_1,,19.41659357,-99.12100196,Carmen Serdán - U.C.T.M. Atzacoalco,RTP,U.C.T.M. Atzacoalco - Carmen Serdán
22612,Avenida 604 - Calle 589,,19.44949608,-99.07352686,Aragón - Metro Chapultepec por Avenida 604,RTP,Aragón - Metro Chapultepec por Avenida 604
22110,avenida 412 - Avenida 1523,,19.46492316,-99.0670681,Metro Chapultepec - Aragón,RTP,Aragón - Metro Chapultepec por la Villa
20348,Avenida 5 De Mayo - Cuacontle,,19.25514144,-99.04298186,Xochimilco/Palmas - Tulyehualco,RTP,Tulyehualco - Xochimilco/Palmas
18479,Avenida 412 - Avenida 1512,,19.46547952,-99.06872034,Aragón - Metro Chapultepec,RTP,Aragón - Metro Chapultepec por la Villa
19704,Anillo Periférico Boulevard Adolfo Ruiz Cortinez - Glorieta De Vaqueritos,,19.28406634,-99.12842631,Cetram Metro Cuatro Caminos - Cetram Metro Constitución de 1917 Nocturno,RTP,Metro Constitución de 1917 - Metro Cuatro Caminos (Noche Bus)
19411,Anillo Periférico Boulevard Manuel Ávila Camacho - Batalla De Celaya,,19.43553457,-99.21249747,Cetram Metro Cuatro Caminos - Cetram Metro Constitución de 1917 Nocturno,RTP,Metro Constitución de 1917 - Metro Cuatro Caminos (Noche Bus)
19712,Anillo Periférico Boulevard Adolfo Ruiz Cortinez - Puente 1,,19.28666893,-99.12065864,Cetram Metro Cuatro Caminos - Cetram Metro Constitución de 1917 Nocturno,RTP,Metro Constitución de 1917 - Metro Cuatro Caminos (Noche Bus)
17102,Anillo Periférico Canal de Garay - Río Miramontes/CRIT Teleton,,19.32828441,-99.06756163,Cetram Metro Cuatro Caminos - Cetram Metro Constitución de 1917 Nocturno,RTP,Metro Constitución de 1917 - Metro Cuatro Caminos (Noche Bus)
15956,Anillo Periférico Canal de Garay - Villa Camacho Sedena,,19.3110421,-99.08256054,Cetram Metro Constitución de 1917 - Cetram Metro Cuatro Caminos Nocturno,RTP,Metro Constitución de 1917 - Metro Cuatro Caminos (Noche Bus)
19469,Anillo Periférico Sur - Luis Alconedo,,19.3660127,-99.19110417,Cetram Metro Cuatro Caminos - Cetram Metro Constitución de 1917 Nocturno,RTP,Metro Constitución de 1917 - Metro Cuatro Caminos (Noche Bus)
23127,Avenida 608 - Avenida 583,,19.45330999,-99.07528639,Panteón San Isidro - Aragón Nocturno,RTP,Aragón - Panteón San Isidro (Noche Bus)
19795,Avenida Año Juárez - Floricultor,,19.25732922,-99.03906584,Tulyehualco - Xochimilco/Palmas,RTP,Tulyehualco - Xochimilco/Palmas
27472,Avenida Altavista - Magnolia,,19.34871364,-99.19837832,Santa Rosa - Metro Mixcoac,RTP,Santa Rosa Xochiac - Metro Mixcoac
16013,Avenida Acueducto - Vidrio Plano,,19.51301587,-99.12431717,Zacatenco - Metro Potrero,RTP,Zacatenco - Metro Potrero
29207,Estación 41429207,,19.47338973,-99.07941699,León de los Aldama - Central de Abastos,RTP,San Felipe/León de Los Aldama -  Central de Abastos
18507,José López Portillo - San Francisco,,19.20952575,-98.99813533,Metro Tasqueña - Villa Milpa Alta,RTP,Villa Milpa Alta - Metro Tasqueña
15507,Avenida 5 - Anastasio Sarabia,100 metros antes de las escalinatas del Puente Peatonal,19.36069867,-99.11057353,San Lázaro - Carmen Serdán,RTP,Metro San Lazáro - Carmen Serdàn
18511,Avenida 412 - Avenida 485,,19.46675408,-99.07434225,Aragón - Metro Chapultepec,RTP,Aragón - Metro Chapultepec por la Villa
22032,Avenida 412 - Avenida 507,,19.46661246,-99.0747714,Metro Chapultepec - Aragón,RTP,Aragón - Metro Chapultepec por la Villa
25221,Anillo de circunvalación - Ramón Corona,,19.42763264,-99.12537932,Metro Chabacano - León de los Aldama,RTP,León de los Aldama - Metro Chabacano
22758,Angel Albino Corzo - Norte 62 A,,19.46378009,-99.11158204,Aragón - Panteón San Isidro Nocturno,RTP,Aragón - Panteón San Isidro (Noche Bus)
24551,Anillo circunvalación - Manzanares,,19.42980799,-99.12499309,León de los Aldama - Metro Chabacano,RTP,León de los Aldama - Metro Chabacano
23104,Ángel Albino Corzo - Norte 70,,19.46258643,-99.1092217,Panteón San Isidro - Aragón Nocturno,RTP,Aragón - Panteón San Isidro (Noche Bus)
19525,Avenida H. Congreso De La Unión - Tesoro,,19.47092162,-99.10935044,U.C.T.M. Atzacoalco - Carmen Serdán,RTP,U.C.T.M. Atzacoalco - Carmen Serdán
22995,Avenida Ingeniero Eduardo Molina - Calle 310,,19.49730008,-99.0895772,Carmen Serdán - U.C.T.M. Atzacoalco,RTP,U.C.T.M. Atzacoalco - Carmen Serdán
16048,Avenida Instituto Politécnico Nacional - Montevideo,,19.49075644,-99.13359761,Metro Potrero -  Colonia El Tepetatal (El Charco),RTP,Colonia El Tepetatal (El Charco) -  Metro Potrero
18649,Avenida Insurgentes Norte - Poniente 112,,19.4754532,-99.13416624,Metro Potrero -  Colonia El Tepetatal (El Charco),RTP,Colonia El Tepetatal (El Charco) -  Metro Potrero
23088,Avenida Jalisco - Tordo,,19.40053448,-99.18843269,Metro Tacubaya - Jesús del Monte (Cuajimalpa) Nocturno,RTP,Jesús del Monte (Cuajimalpa) - Metro Tacubaya (Noche Bus)
21212,Avenida Juárez - 5 De Mayo,,19.20674971,-99.07087684,San Bartolomé Xicomulco - Xochimilco/Palmas,RTP,San Bartolomé Xicomulco - Xochimilco/Palmas
18657,Avenida Juárez - Ocampo,,19.3561639,-99.30063486,Metro Tacubaya -  Chimalpa,RTP,Chimalpa - Metro Tacubaya
22239,Avenida Lomas De Vista Hermosa - Loma Chica,,19.37764223,-99.27066922,Col. Navidad ( las piedras) - Metro Tacubaya,RTP,Col. Navidad (Las Piedras) - Metro Tacubaya
30972,Avenida México - Ajusco - Escuela De Futbol Chivas,,19.23405222,-99.19107199,Metro Universidad - Cierre de circuito Santo Tomás Ajusco,RTP,Santo Tomás Ajusco - Metro Universidad
30891,Avenida México - Chabacano_1,,19.2328974,-99.17781115,Metro Universidad - Cierre de circuito Santo Tomás Ajusco,RTP,Santo Tomás Ajusco - Metro Universidad
25418,Avenida México - Congreso De La Unión,,19.34824798,-99.00299549,Avisadero/Colonia Ixtlahuacan -  Metro Zaragoza/M. Tepalcates,RTP,Colonia Ixtlahuacan Avisadero -  Metro Zaragoza
21020,Avenida Miguel Bernard - Arroyo de los Sauces,,19.50804038,-99.1383934,Colonia El Tepetatal (El Charco) -  Metro Potrero,RTP,Colonia El Tepetatal (El Charco) -  Metro Potrero
15232,Avenida Miguel Bernard - Escuela de Ingenieros,,19.50579529,-99.13566828,Metro Martín Carrera - Metro Tacuba,RTP,Metro Tacuba - Metro Martín Carrera (por Ceylan) Expreso
28294,Avenida Miguel Hidalgo - Calle 25,,19.37195408,-99.21682119,Metro Mixcoac - Presidentes,RTP,Presidentes - Metro Mixcoac
19654,Avenida Miguel Hidalgo - Tlaloc,,19.20320359,-99.04577136,Villa Milpa Alta - San Salvador Cuahutenco,RTP,San Salvador Cuahutenco - Villa Milpa Alta
18868,Avenida Misterios - Eje 3 Norte Avenida Ingeniero Alfredo Robles Dominguez,,19.46835233,-99.12500381,La Villa/Cantera - Centro Comercial Santa Fe Nocturno,RTP,Centro Comercial Santa Fe -  La Villa/Cantera por Palmas (Noche Bus)
19313,Avenida Monte De Las Cruces - Primera Cerrada Monte De Las Cruces,,19.32657343,-99.31848764,San Lorenzo Acopilco - Metro Tacubaya,RTP,San Lorenzo Acopilco - Metro Tacubaya
15900,Avenida Morelos - Querétaro,,19.54874996,-99.15114999,Metro Indios Verdes - El Tepetatal (El Charco),RTP,Colonia El Tepetatal (El Charco)  -  Metro Indios Verdes
19668,Avenida Observatorio - Ex - Arzobispado,,19.40306437,-99.19687629,San Lorenzo Acopilco - Metro Tacubaya,RTP,San Lorenzo Acopilco - Metro Tacubaya
18269,Avenida Observatorio - Sur 122,,19.40227505,-99.20048118,Metro Tacubaya - La Pila,RTP,La Pila - Metro Tacubaya
22429,Avenida Paseo De La Reforma - Castillo De Chapultepec_1,,19.40087855,-99.23296809,Col. Navidad ( las piedras) - Metro Tacubaya,RTP,Col. Navidad (Las Piedras) - Metro Tacubaya
19141,Avenida Paseo De La Reforma - Glorieta De Colon,,19.43262072,-99.15521622,Centro Comercial Santa Fe - La Villa/Cantera,RTP,Centro Comercial Santa Fe -  La Villa/Cantera por Palmas (Noche Bus)
24003,Avenida Paseo De La Reforma - Río Danubio,,19.4277237,-99.16634202,La Villa/Cantera - Centro Comercial Santa Fe Nocturno,RTP,Centro Comercial Santa Fe -  La Villa/Cantera por Palmas (Noche Bus)
23642,Avenida Paseo De Las Palmas - Cofre De Perote,,19.42608458,-99.22194958,La Villa/Cantera - Centro Comercial Santa Fe,RTP,Centro Comercial Santa Fe -  La Villa/Cantera por Palmas (Noche Bus)
17204,Avenida Paseo Del Pedregal - Farallon,,19.320843,-99.20156479,Cierre de Circuito Bosques - Metro Universidad,RTP,Bosques del Pedregal - Metro Universidad por López Portillo
27105,Avenida Patriotismo - José Martí,,19.40253816,-99.17903423,Puente Colorado - Metro Chapultepec,RTP,Puente Colorado - Metro Chapultepec
22080,Avenida Puerto México - Antiguo Camino A Chimalpa,,19.35331948,-99.31007624,Chimalpa -  Metro Tacubaya,RTP,Chimalpa - Metro Tacubaya
18676,Avenida Puerto México - San Antonio,,19.3539572,-99.3067503,Metro Tacubaya -  Chimalpa,RTP,Chimalpa - Metro Tacubaya
17098,Avenida Revolución - Andrea Del Sarto,,19.3765289,-99.1876924,Oceanía Norte Nocturno,RTP,Circuito Bicentenario (Noche Bus)
26718,Avenida Revolución - Avenida San Jeronimo,,19.33641389,-99.19301391,Cierre de Circuito Bosques - Metro Universidad,RTP,Bosques del Pedregal - Metro Universidad por López Portillo
17077,Avenida Revolución - Calle 2,,19.3952317,-99.18551445,Metro Tacubaya - Piloto,RTP,Piloto - Metro Tacubya
17179,Avenida Revolución - Camino Al Desierto De Los Leones,,19.34869339,-99.19073939,Santa Rosa - Metro Mixcoac,RTP,Santa Rosa Xochiac - Metro Mixcoac
26817,Avenida Revolución - Fernando Villalpando,,19.35349156,-99.19002056,Santa Rosa - Metro Mixcoac,RTP,Santa Rosa Xochiac - Metro Mixcoac
17112,Avenida Revolución - Merced Gómez,,19.36618477,-99.18889403,Metro Chapultepec - Puete Colorado,RTP,Puente Colorado - Metro Chapultepec
17172,Avenida Revolución - Sofía,,19.35761139,-99.18982744,Metro Chapultepec - Pedregal de San Nicolás,RTP,Metro Chapultepec - Torres de Padierna/Pedregal de San Nicolás
17176,Avenida Revolución - Tlacopac,,19.35412928,-99.1902566,Metro Chapultepec - Pedregal de San Nicolás,RTP,Metro Chapultepec - Torres de Padierna/Pedregal de San Nicolás
17422,Avenida Río Consulado - Misterios,,19.46297083,-99.13056135,Reclusorio Norte - Metro Hidalgo/Alameda Central,RTP,Reclusorio Norte - Metro Hidalgo/Alameda Central
30607,Avenida San Jerónimo - Rosal_1,,19.30647557,-99.24793482,San Bernabel/Oyamel - Metro Universidad,RTP,Metro Universidad - San Bernabé/Oyamel
18336,Avenida San Pablo Xalpa - Rosario,,19.49853393,-99.18431282,Metro Tacuba - Metro Rosario,RTP,Metro Rosario - Metro Tacuba
35903,Avenida Santa Fe - Edificio 3M,,19.3736646,-99.25863147,Metro Balderas - Cierre de Circuito Santa Fe,RTP,ECOBÚS Santa Fe - Metro Balderas
35907,Avenida Santa Fe - Enrique Del Moral,,19.35872485,-99.27212834,Metro Miguel Ángel de Quevedo- Cierre de Circuito Santa Fe,RTP,ECOBÚS Santa Fe - Metro Miguel Ángel de Quevedo
20342,Avenida Santa Fe - Frente a Hotel Fiesta Americana Santa Fe,,19.36576978,-99.26276207,Metro Tacubaya - Jesús del Monte (Cuajimalpa) Nocturno,RTP,Jesús del Monte (Cuajimalpa) - Metro Tacubaya (Noche Bus)
36001,Avenida Santa Fe - Luis Barragan_1,,19.36127563,-99.26702142,Cierre de Circuito Santa Fe - Metro Miguel Ángel de Quevedo,RTP,ECOBÚS Santa Fe - Metro Miguel Ángel de Quevedo
22440,Avenida Tamaulipas - Altavista,,19.35542496,-99.26716089,Jesús del Monte (Cuajimalpa ) - Metro Tacubaya Nocturno,RTP,Jesús del Monte (Cuajimalpa) - Metro Tacubaya (Noche Bus)
15578,Avenida Tepantongo - Salamanca,,19.49399289,-99.18590069,Metro Tacuba -  Metro Martín Carrera  por Ceylán,RTP,Metro Martín Carrera - Metro Tacuba por Ceylán
18387,Avenida Tláhuac - Cástulo García,,19.2970586,-99.03060079,Metro Universidad - Santa Catarina,RTP,Santa Catarina - Metro Universidad
17008,Avenida Tláhuac - Circuito Bahamas 1,,19.32157197,-99.09177661,Mixquic - Metro Tasqueña,RTP,Mixquic - Metro Tasqueña
17012,Avenida Tláhuac - Circuito Bahamas 2,,19.32246293,-99.09706593,Mixquic - Metro Tasqueña,RTP,Mixquic - Metro Tasqueña
18315,Avenida Tláhuac - Cocodrilo,,19.30296199,-99.05632854,Metro Constitución de 1917 - Santa Catarina,RTP,Santa Catarina - Metro Constitución de 1917
16972,Avenida Tláhuac - Felipe Ángeles,,19.29734213,-99.03023601,Santa Catarina -  Metro Universidad,RTP,Santa Catarina - Metro Universidad
16978,Avenida Tláhuac - General M. López,,19.29997488,-99.04595375,Santa Catarina - Metro Constitución de 1917,RTP,Santa Catarina - Metro Constitución de 1917
16994,Avenida Tláhuac - Ignacio Zaragoza,,19.31657037,-99.07323718,Santa Catarina - Metro Constitución de 1917,RTP,Santa Catarina - Metro Constitución de 1917
16967,Avenida Tláhuac - Ojo De Agua,,19.29215751,-99.01655674,Santa Catarina -  Metro Universidad,RTP,Santa Catarina - Metro Universidad
25398,Avenida Vasco de Quiroga - González Camarena,,19.36612404,-99.26341653,Metro Tacubaya - Jesús del Monte (Cuajimalpa) Nocturno,RTP,Jesús del Monte (Cuajimalpa) - Metro Tacubaya (Noche Bus)
22643,Avenida Vasco de Quiroga - Puerta Santa Fe,,19.37898832,-99.2467761,Jesús del Monte (Cuajimalpa ) - Metro Tacubaya Nocturno,RTP,Jesús del Monte (Cuajimalpa) - Metro Tacubaya (Noche Bus)
24851,Avenida Vasco de Quiroga -Manuel Sandoval,,19.37598236,-99.25556302,Metro Tacubaya - Jesús del Monte (Cuajimalpa) Nocturno,RTP,Jesús del Monte (Cuajimalpa) - Metro Tacubaya (Noche Bus)
19839,Belisario Domínguez - Calvario,,19.25457424,-99.04966593,Tulyehualco - Xochimilco/Palmas,RTP,Tulyehualco - Xochimilco/Palmas
19136,Blanca Estela Pavón - Lucha Reyes,,19.56218612,-99.12895203,La Villa/Ferroplaza -  Colonia Forestal,RTP,Colonia Forestal - La Villa Ferroplaza
29431,Bolívares  - Manchuria,,19.4449132,-99.08983469,León de los Aldama - Central de Abastos,RTP,San Felipe/León de Los Aldama -  Central de Abastos
29524,Boulevard Puerto Aéreo - Calzada Ignacio Zaragoza,,19.42052967,-99.09600377,León de los Aldama - Central de Abastos,RTP,San Felipe/León de Los Aldama -  Central de Abastos
30237,Cafetales - Calzada Del Hueso_1,,19.30019765,-99.11362052,Bosque de Nativitas / Xochimilco - M. San Lázaro por Cafetales,RTP,M. San Lázaro - Xochimilco / Bosque de Nativitas por Cafetales Expreso
20754,Calzada De La Virgen - Rosa María Sequeira_1,,19.31971917,-99.1192317,Carmen Serdán - U.C.T.M. Atzacoalco,RTP,U.C.T.M. Atzacoalco - Carmen Serdán
27659,Calzada De Las Águilas - 4ta. Cerrada De Las Águilas Walmart,,19.35299555,-99.21617746,Metro Chapultepec - Puete Colorado,RTP,Puente Colorado - Metro Chapultepec
24368,Calzada De Tlalpan - Cáliz,,19.31838271,-99.1390264,Metro Taxqueña - San Pedro Mártir,RTP,Metro Tasqueña - San Pedro Martir por FOVISSSTE
23947,Calzada De Tlalpan - La Virgen,,19.3320708,-99.14052844,San Pedro Mártir - Metro Taxqueña,RTP,Metro Tasqueña - San Pedro Martir por FOVISSSTE
20119,Calzada De Tlalpan - Michoacan,,19.27950919,-99.1667819,Metro Universidad - Topilejo,RTP,Topilejo - Metro Universidad
24240,Calzada De Tlalpan - Parque San Andrés,,19.34626388,-99.14497018,Republica del Salvador - Santiago Tepalcatlalpan,RTP,Santiago Tepalcatlalpan - República del Salvador
23941,Calzada De Tlalpan - Tezozomoc,,19.32301978,-99.13772821,San Pedro Mártir - Metro Taxqueña,RTP,Metro Tasqueña - San Pedro Martir por FOVISSSTE
15231,Calzada Ermita Iztapalapa - Calle 71,,19.34271067,-99.04747725,Metro Santa Martha -  Metro Mixcoac,RTP,Metro Santa Martha -  Metro Mixcoac
15859,Eje Central Lázaro Cárdenas - Avenida Progreso Nacional,,19.51782941,-99.15598869,Metro La Raza (Línea 5) - El Tepetatal (El Charco) Expresso,RTP,El Tepetatal (El Charco) - Metro La Raza (Linea 5) Expreso
15753,Eje Central Lázaro Cárdenas - Margarita Maza de Juárez,,19.50795948,-99.15257692,Ampliación Malacates - Metro La Raza (Línea 3),RTP,Ampliación Malacates - Metro la Raza (Linea 3)
20378,Elvira Vargas - Candelaria,,19.3108396,-99.10119653,San Lázaro - Carmen Serdán,RTP,Metro San Lazáro - Carmen Serdàn
20832,Emiliano Zapata - De Las Rosas,,19.22322294,-98.96573424,Mixquic - Metro Tasqueña,RTP,Mixquic - Metro Tasqueña
16367,Emiliano Zapata - División Del Norte,,19.36613416,-99.15576339,Metro Mixcoac -  Metro Santa Martha,RTP,Metro Santa Martha -  Metro Mixcoac
20818,Escuela Naval Militar - Ejido San Lorenzo_1,,19.33215179,-99.12365198,Carmen Serdán - U.C.T.M. Atzacoalco,RTP,U.C.T.M. Atzacoalco - Carmen Serdán
15309,Estío - Azcapotzalco,,19.46568183,-99.18779969,Metro Martín Carrera - Metro Tacuba por Ceylán,RTP,Metro Martín Carrera - Metro Tacuba por Ceylán
21333,Fernando Amilpa - Andador 30 Fernando Amilpa,,19.50627061,-99.09320354,Carmen Serdán - U.C.T.M. Atzacoalco,RTP,U.C.T.M. Atzacoalco - Carmen Serdán
16429,Frente a la UACM,,19.55530137,-99.14210558,Metro La Raza (Línea 5) - El Tepetatal (El Charco) Expresso,RTP,El Tepetatal (El Charco) - Metro La Raza (Linea 5) Expreso
24653,Granjas - Acalotenco,,19.48131978,-99.17482853,Metro El Rosario - Parque México por Plan de San Luis,RTP,Metro El Rosario - Parque México por Plan de San Luis
15312,Grecia - Bocanegra,,19.46221215,-99.18256402,Metro Martín Carrera - Metro Tacuba por Ceylán,RTP,Metro Martín Carrera - Metro Tacuba por Ceylán
23780,Guadalupe I. Ramírez - La Noria,,19.26923993,-99.12825465,Santiago Tepalcatlalpan - Republica del Salvador,RTP,Santiago Tepalcatlalpan - República del Salvador
21696,Ignacio Manuel Altamirano - Avenida Vergel,,19.34156674,-99.04763818,Metro Constitución de 1917 - San José Buenavista,RTP,San José Buenavista - Metro Constitución de 1917
18965,Insurgentes Norte - Debussy,,19.46934363,-99.13947701,Ampliación Malacates - Metro La Raza (Línea 3),RTP,Ampliación Malacates - Metro la Raza (Linea 3)
19192,José María Morelos - Acachinamic,,19.19783362,-99.10066009,Xochimilco/Palmas - San Pablo Oztotepec,RTP,San Pablo Oztotepec -  Xochimilco/Palmas
18936,José María Morelos - Francisco I. Madero,,19.26182622,-99.10473704,Xochimilco/Palmas - San Bartolomé Xicomulco,RTP,San Bartolomé Xicomulco - Xochimilco/Palmas
26018,Juan Escutía - Avenida Tamaulipas,,19.41349723,-99.17248964,Metro El Rosario - Parque México por Cuitláhuac,RTP,Metro El Rosario - Parque México por Cuitláhuac
30612,La Perita - San Francisco,,19.30469348,-99.24616456,San Bernabel/Oyamel - Metro Universidad,RTP,Metro Universidad - San Bernabé/Oyamel
18996,La Turba - Unidad Habitacional La Draga / Creson /La Hebrea,,19.28591955,-99.04367924,Metro Universidad - Santa Catarina,RTP,Santa Catarina - Metro Universidad
18295,Lerdo - 2da. Cerrada San Miguel,,19.5609022,-99.13453102,Metro Indios Verdes - Lomas de Cuautepec,RTP,Lomas de Cuautepec - Metro Indios Verdes
22156,Loma Del Parque - Carlos Echanove,,19.372531,-99.27757859,Col. Navidad ( las piedras) - Metro Tacubaya,RTP,Col. Navidad (Las Piedras) - Metro Tacubaya
22262,Loma Del Recuerdo - Prolongación Paseo De Los Laureles,,19.38225737,-99.26725745,Col. Navidad ( las piedras) - Metro Tacubaya,RTP,Col. Navidad (Las Piedras) - Metro Tacubaya
22387,Maní - Homun,,19.2838638,-99.23729181,Pedregal de San Nicolás - Metro Universidad,RTP,Pedregal de San Nicolás - Metro Universidad
